{
  "animal": [
    {
      "no": 1,
      "name": "1004 약국",
      "address": "경기도 고양시 덕양구 동산동 352-1",
      "latitude": 37.6446399,
      "longitude": 126.8862718,
      "facilityType": "약국"
    },
    {
      "no": 2,
      "name": "1004섬수석미술관",
      "address": "전라남도 신안군 자은면 백산리 633-54",
      "latitude": 34.8798016,
      "longitude": 125.9971025
    },
    {
      "no": 3,
      "name": "100세건강약국",
      "address": "경기도 안양시 만안구 안양동 856-4",
      "latitude": 37.4071817,
      "longitude": 126.9148417
    },
    {
      "no": 4,
      "name": "100세약국",
      "address": "서울특별시 영등포구 당산동6가 217-4",
      "latitude": 37.5332324,
      "longitude": 126.90378
    },
    {
      "no": 5,
      "name": "100세약국",
      "address": "경기도 수원시 팔달구 인계동 942-4",
      "latitude": 37.2763392,
      "longitude": 127.0308369
    },
    {
      "no": 6,
      "name": "100세약국",
      "address": "인천광역시 남동구 간석동 207-3",
      "latitude": 37.4620832,
      "longitude": 126.7086607
    },
    {
      "no": 7,
      "name": "100코달리 와인바",
      "address": "서울특별시 중구 신당동 292-152",
      "latitude": 37.5633135,
      "longitude": 127.0164256
    },
    {
      "no": 8,
      "name": "100평 광장약국",
      "address": "경기도 의정부시 금오동 441-65",
      "latitude": 37.7520404,
      "longitude": 127.0493178
    },
    {
      "no": 9,
      "name": "107page",
      "address": "경상북도 구미시 봉곡동 56-2",
      "latitude": 36.1585694,
      "longitude": 128.306237
    },
    {
      "no": 10,
      "name": "119동물병원",
      "address": "대구광역시 달성군 다사읍 매곡리 1551-1",
      "latitude": 35.8573168,
      "longitude": 128.4668949
    },
    {
      "no": 11,
      "name": "153약국",
      "address": "세종특별자치시 종촌동 668",
      "latitude": 36.5027225,
      "longitude": 127.2500324
    },
    {
      "no": 12,
      "name": "1723 카페",
      "address": "전라북도 전주시 완산구 교동 98-2",
      "latitude": 35.8127067,
      "longitude": 127.1517087
    },
    {
      "no": 13,
      "name": "1919봄",
      "address": "경상남도 밀양시 산외면 금천리 810-4",
      "latitude": 35.505471,
      "longitude": 128.7898447
    },
    {
      "no": 14,
      "name": "1974유달동미스박",
      "address": "전라남도 목포시 상동 878-9",
      "latitude": 34.8038994,
      "longitude": 126.4258104
    },
    {
      "no": 15,
      "name": "1번가온누리약국",
      "address": "강원도 평창군 진부면 하진부리 101",
      "latitude": 37.6376716,
      "longitude": 128.5592836
    },
    {
      "no": 16,
      "name": "1층메디컬약국",
      "address": "서울특별시 금천구 시흥동 889-8",
      "latitude": 37.4530549,
      "longitude": 126.9017192
    },
    {
      "no": 17,
      "name": "1층이화약국",
      "address": "서울특별시 성동구 하왕십리동 1070",
      "latitude": 37.5661099999999,
      "longitude": 127.0276467
    },
    {
      "no": 18,
      "name": "1호선범일약국",
      "address": "부산광역시 동구 범일동 949",
      "latitude": 35.1394694,
      "longitude": 129.0594213
    },
    {
      "no": 19,
      "name": "202펫푸드",
      "address": "경상남도 창원시 마산합포구 현동 382",
      "latitude": 35.1501281,
      "longitude": 128.5537287
    },
    {
      "no": 20,
      "name": "21세기 동규약국",
      "address": "경기도 오산시 오산동 880-21",
      "latitude": 37.1466109,
      "longitude": 127.0686498
    },
    {
      "no": 21,
      "name": "21세기 동물병원",
      "address": "전라북도 전주시 덕진구 송천동1가 626-42",
      "latitude": 35.8615148,
      "longitude": 127.1149457
    },
    {
      "no": 22,
      "name": "21세기 세계로약국",
      "address": "경기도 성남시 중원구 금광동 11",
      "latitude": 37.444705,
      "longitude": 127.158567
    },
    {
      "no": 23,
      "name": "21세기 약국",
      "address": "경기도 광명시 철산동 495-12",
      "latitude": 37.4744949,
      "longitude": 126.8666028
    },
    {
      "no": 24,
      "name": "21세기 우리네약국",
      "address": "부산광역시 남구 문현동 244-14",
      "latitude": 35.136705,
      "longitude": 129.0726973
    },
    {
      "no": 25,
      "name": "21세기 정약국",
      "address": "경기도 수원시 권선구 세류동 459-3",
      "latitude": 37.2559709,
      "longitude": 127.011025
    },
    {
      "no": 26,
      "name": "21세기건강약국",
      "address": "광주광역시 북구 문흥동 938-1",
      "latitude": 35.1794031,
      "longitude": 126.9158436
    },
    {
      "no": 27,
      "name": "21세기동물병원",
      "address": "서울특별시 용산구 보광동 259-1",
      "latitude": 37.5283742,
      "longitude": 126.9992139
    },
    {
      "no": 28,
      "name": "21세기동물병원",
      "address": "전라남도 목포시 상동 127-6",
      "latitude": 34.8106399,
      "longitude": 126.4172729
    },
    {
      "no": 29,
      "name": "21세기맑은약국",
      "address": "인천광역시 부평구 삼산동 465-1",
      "latitude": 37.507883,
      "longitude": 126.7320463
    },
    {
      "no": 30,
      "name": "21세기새롬약국",
      "address": "경기도 고양시 덕양구 화정동 969-1",
      "latitude": 37.6373655,
      "longitude": 126.8346762
    },
    {
      "no": 31,
      "name": "21세기약국",
      "address": "인천광역시 남동구 만수동 72-38",
      "latitude": 37.4606419,
      "longitude": 126.7335706
    },
    {
      "no": 32,
      "name": "21세기약국",
      "address": "강원도 춘천시 후평동 456-10",
      "latitude": 37.8802306,
      "longitude": 127.7506086
    },
    {
      "no": 33,
      "name": "21세기약국",
      "address": "경상북도 구미시 송정동 27-11",
      "latitude": 36.1167929,
      "longitude": 128.339348
    },
    {
      "no": 34,
      "name": "21세기약국",
      "address": "부산광역시 동래구 온천동 502-3",
      "latitude": 35.2118021,
      "longitude": 129.0774473
    },
    {
      "no": 35,
      "name": "21세기약국",
      "address": "광주광역시 서구 풍암동 423-2",
      "latitude": 35.1333608,
      "longitude": 126.8778261
    },
    {
      "no": 36,
      "name": "21세기종합동물병원",
      "address": "대구광역시 동구 효목동 64-6",
      "latitude": 35.8859509,
      "longitude": 128.6367503
    },
    {
      "no": 37,
      "name": "21세기종합동물병원",
      "address": "부산광역시 북구 덕천동 383-3",
      "latitude": 35.2107133,
      "longitude": 129.0087903
    },
    {
      "no": 38,
      "name": "21세기종합약국",
      "address": "전라북도 전주시 덕진구 금암동 720-35",
      "latitude": 35.8380155,
      "longitude": 127.1328406
    },
    {
      "no": 39,
      "name": "21C 세계로약국",
      "address": "서울특별시 강서구 화곡동 1064-4",
      "latitude": 37.5420357,
      "longitude": 126.8407711
    },
    {
      "no": 40,
      "name": "21c청학보건당",
      "address": "경기도 남양주시 별내면 청학리 413",
      "latitude": 37.7086833,
      "longitude": 127.1184035
    },
    {
      "no": 41,
      "name": "228약국",
      "address": "대구광역시 중구 동성로2가 66-1",
      "latitude": 35.8701653,
      "longitude": 128.5966409
    },
    {
      "no": 42,
      "name": "22세기 약국",
      "address": "대구광역시 수성구 범어동 835",
      "latitude": 35.8590376,
      "longitude": 128.632153
    },
    {
      "no": 43,
      "name": "22세기 약국",
      "address": "전라남도 순천시 풍덕동 300",
      "latitude": 34.9400591,
      "longitude": 127.5090189
    },
    {
      "no": 44,
      "name": "24시 강서 젠틀리동물의료센터",
      "address": "서울특별시 강서구 마곡동 747",
      "latitude": 37.5595407,
      "longitude": 126.8193505
    },
    {
      "no": 45,
      "name": "24시 건국 본 동물병원",
      "address": "인천광역시 미추홀구 주안동 1464-22",
      "latitude": 37.4482386,
      "longitude": 126.6800069
    },
    {
      "no": 46,
      "name": "24시 굿케어동물의료센터",
      "address": "서울특별시 관악구 봉천동 1673-21",
      "latitude": 37.4800036,
      "longitude": 126.9569226
    },
    {
      "no": 47,
      "name": "24시 글로리 동물병원",
      "address": "서울특별시 금천구 독산동 145-13",
      "latitude": 37.4767457,
      "longitude": 126.8982881
    },
    {
      "no": 48,
      "name": "24시 당신의 동물의료센터",
      "address": "경기도 수원시 장안구 천천동 516",
      "latitude": 37.3006607,
      "longitude": 126.9841025
    },
    {
      "no": 49,
      "name": "24시 더나은 동물메디컬 센터",
      "address": "경상남도 거제시 고현동 203-1",
      "latitude": 34.8829948,
      "longitude": 128.6252896
    },
    {
      "no": 50,
      "name": "24시 더블유 동물의료센터",
      "address": "인천광역시 서구 청라동 157-21",
      "latitude": 37.5323107,
      "longitude": 126.6474602
    },
    {
      "no": 51,
      "name": "24시 더원 동물병원",
      "address": "인천광역시 서구 원당동 1043-9",
      "latitude": 37.5968985,
      "longitude": 126.7079205
    },
    {
      "no": 52,
      "name": "24시 더케어 동물의료센터",
      "address": "경기도 구리시 수택동 561-2",
      "latitude": 37.6032809,
      "longitude": 127.1473489
    },
    {
      "no": 53,
      "name": "24시 동물응급의료센터",
      "address": "서울특별시 중랑구 중화동 207",
      "latitude": 37.5954352,
      "longitude": 127.08002
    },
    {
      "no": 54,
      "name": "24시 동탄 이음동물의료센터",
      "address": "경기도 화성시 산척동 727-4",
      "latitude": 37.1687332,
      "longitude": 127.1084304
    },
    {
      "no": 55,
      "name": "24시 라움동물의료센터",
      "address": "경기도 평택시 비전동 1103-1",
      "latitude": 36.99888,
      "longitude": 127.1139544
    },
    {
      "no": 56,
      "name": "24시 라인동물의료센터",
      "address": "경기도 고양시 덕양구 삼송동 291",
      "latitude": 37.6524044,
      "longitude": 126.8967085
    },
    {
      "no": 57,
      "name": "24시 리본동물의료센터",
      "address": "부산광역시 동래구 명륜동 506-13",
      "latitude": 35.2028699,
      "longitude": 129.0809765
    },
    {
      "no": 58,
      "name": "24시 멍냥마켓 파장점",
      "address": "경기도 수원시 장안구 파장동 572-56",
      "latitude": 37.3075252,
      "longitude": 126.9910403
    },
    {
      "no": 59,
      "name": "24시 명동물메디컬센터",
      "address": "서울특별시 구로구 개봉동 492",
      "latitude": 37.5004098,
      "longitude": 126.848132
    },
    {
      "no": 60,
      "name": "24시 모두의동물병원",
      "address": "경기도 광명시 하안동 51",
      "latitude": 37.4616348,
      "longitude": 126.8802089
    },
    {
      "no": 61,
      "name": "24시 모란동물 메디컬센터",
      "address": "경기도 광주시 쌍령동 168-2",
      "latitude": 37.3993585,
      "longitude": 127.2736921
    },
    {
      "no": 62,
      "name": "24시 무인 애완용품 펫싸롱 4호점",
      "address": "경기도 의정부시 가능동 28-3",
      "latitude": 37.7532603,
      "longitude": 127.04338
    },
    {
      "no": 63,
      "name": "24시 무인 애완용품 펫싸롱 의정부점",
      "address": "경기도 의정부시 가능동 732-10",
      "latitude": 37.7436007,
      "longitude": 127.0359436
    },
    {
      "no": 64,
      "name": "24시 블레스동물메디컬센터",
      "address": "경기도 용인시 기흥구 중동 851-2",
      "latitude": 37.2697005,
      "longitude": 127.1529475
    },
    {
      "no": 65,
      "name": "24시 블루밍 동물병원",
      "address": "광주광역시 북구 운암동 439-1",
      "latitude": 35.1733104,
      "longitude": 126.8760517
    },
    {
      "no": 66,
      "name": "24시 사람앤동물메디컬센터",
      "address": "경기도 용인시 수지구 성복동 67-6",
      "latitude": 37.3126901,
      "longitude": 127.0799711
    },
    {
      "no": 67,
      "name": "24시 산들산들 동물병원",
      "address": "서울특별시 마포구 아현동 424-14",
      "latitude": 37.5509744,
      "longitude": 126.9565326
    },
    {
      "no": 68,
      "name": "24시 서울 탑 동물병원",
      "address": "서울특별시 양천구 신정동 1182-11",
      "latitude": 37.5177284,
      "longitude": 126.8536262
    },
    {
      "no": 69,
      "name": "24시 서울YES동물병원",
      "address": "경기도 용인시 수지구 죽전동 1174-1",
      "latitude": 37.3317611,
      "longitude": 127.118362
    },
    {
      "no": 70,
      "name": "24시 성심동물메디컬센터",
      "address": "대전광역시 유성구 봉명동 548-11",
      "latitude": 36.3530089,
      "longitude": 127.3452998
    },
    {
      "no": 71,
      "name": "24시 센텀동물메디컬센터 연산점",
      "address": "부산광역시 연제구 연산동 702-10",
      "latitude": 35.1844137,
      "longitude": 129.0808717
    },
    {
      "no": 72,
      "name": "24시 소래동물병원",
      "address": "인천광역시 남동구 논현동 751-1",
      "latitude": 37.3998371,
      "longitude": 126.733006
    },
    {
      "no": 73,
      "name": "24시 송도힐 동물메디컬센터",
      "address": "인천광역시 연수구 송도동 2-3",
      "latitude": 37.3966354,
      "longitude": 126.651972
    },
    {
      "no": 74,
      "name": "24시 숨 동물병원",
      "address": "경기도 수원시 권선구 권선동 1022-7",
      "latitude": 37.2587316,
      "longitude": 127.0296146
    },
    {
      "no": 75,
      "name": "24시 스마트동물병원",
      "address": "서울특별시 강남구 신사동 587-13",
      "latitude": 37.5207257,
      "longitude": 127.0299801
    },
    {
      "no": 76,
      "name": "24시 시유동물메디컬센터",
      "address": "서울특별시 용산구 이촌동 302-88",
      "latitude": 37.5200071,
      "longitude": 126.9699075
    },
    {
      "no": 77,
      "name": "24시 신도림S동물의료센터",
      "address": "서울특별시 구로구 신도림동 435-10",
      "latitude": 37.5068429,
      "longitude": 126.8840869
    },
    {
      "no": 78,
      "name": "24시 쓰담쓰담 동물메디컬 센터",
      "address": "경기도 용인시 기흥구 신갈동 69-7",
      "latitude": 37.271239,
      "longitude": 127.1074304
    },
    {
      "no": 79,
      "name": "24시 아이동물메디컬센터",
      "address": "경기도 부천시 원종동 229-8",
      "latitude": 37.5256608,
      "longitude": 126.8045181
    },
    {
      "no": 80,
      "name": "24시 아프리카동물병원",
      "address": "경기도 안산시 단원구 초지동 742-9",
      "latitude": 37.3017446,
      "longitude": 126.8135652
    },
    {
      "no": 81,
      "name": "24시 안박동물병원",
      "address": "서울특별시 강서구 등촌동 628-13",
      "latitude": 37.5600872,
      "longitude": 126.8563619
    },
    {
      "no": 82,
      "name": "24시 애견미용",
      "address": "경기도 부천시 심곡본동 796-11",
      "latitude": 37.4825338,
      "longitude": 126.788203
    },
    {
      "no": 83,
      "name": "24시 애니동물병원",
      "address": "서울특별시 성북구 보문동5가 3-1",
      "latitude": 37.5839384,
      "longitude": 127.0198341
    },
    {
      "no": 84,
      "name": "24시 양주 힐 동물의료센터",
      "address": "경기도 양주시 옥정동 1036-7",
      "latitude": 37.8212385,
      "longitude": 127.0974946
    },
    {
      "no": 85,
      "name": "24시 언제나 동물병원",
      "address": "광주광역시 북구 매곡동 370-7",
      "latitude": 35.1878852,
      "longitude": 126.890425
    },
    {
      "no": 86,
      "name": "24시 오케이 동물병원",
      "address": "인천광역시 연수구 송도동 311",
      "latitude": 37.415518,
      "longitude": 126.6194208
    },
    {
      "no": 87,
      "name": "24시 온누리동물메디컬센터",
      "address": "경기도 안산시 단원구 고잔동 525-1",
      "latitude": 37.3191626,
      "longitude": 126.829788
    },
    {
      "no": 88,
      "name": "24시 와이즈 동물메디컬센터",
      "address": "경기도 하남시 덕풍동 742",
      "latitude": 37.5520484,
      "longitude": 127.2086335
    },
    {
      "no": 89,
      "name": "24시 웰니스 동물 의료센터",
      "address": "경기도 부천시 중동 1128",
      "latitude": 37.4973413,
      "longitude": 126.7759582
    },
    {
      "no": 90,
      "name": "24시 위드유 동물의료센터",
      "address": "경기도 시흥시 은행동 646",
      "latitude": 37.4365791,
      "longitude": 126.8016194
    },
    {
      "no": 91,
      "name": "24시 위드힐동물메디컬센터",
      "address": "경기도 남양주시 별내동 931",
      "latitude": 37.6582259,
      "longitude": 127.1250595
    },
    {
      "no": 92,
      "name": "24시 이지동물의료센터",
      "address": "경기도 부천시 역곡동 49-5",
      "latitude": 37.4848,
      "longitude": 126.8089144
    },
    {
      "no": 93,
      "name": "24시 인천동물병원 치료해주오",
      "address": "인천광역시 남동구 논현동 637-2",
      "latitude": 37.4014375,
      "longitude": 126.7104064
    },
    {
      "no": 94,
      "name": "24시 일산우리 동물의료센터",
      "address": "경기도 고양시 일산서구 주엽동 115",
      "latitude": 37.670913,
      "longitude": 126.7585531
    },
    {
      "no": 95,
      "name": "24시 좋은나라애견본부 고양점",
      "address": "경기도 고양시 덕양구 대장동 292-1",
      "latitude": 37.6363604,
      "longitude": 126.8151017
    },
    {
      "no": 96,
      "name": "24시 지구촌 동물메디컬 센터",
      "address": "서울특별시 구로구 구로동 505-17",
      "latitude": 37.4987925,
      "longitude": 126.884781
    },
    {
      "no": 97,
      "name": "24시 청담우리 동물병원",
      "address": "서울특별시 강남구 삼성동 70-6",
      "latitude": 37.5144888,
      "longitude": 127.0528557
    },
    {
      "no": 98,
      "name": "24시 청주 고려동물메디컬센터",
      "address": "충청북도 청주시 서원구 사직동 597-35",
      "latitude": 36.6352516,
      "longitude": 127.4758898
    },
    {
      "no": 99,
      "name": "24시 청주이음동물의료센터",
      "address": "충청북도 청주시 흥덕구 비하동 220-1",
      "latitude": 36.6353493,
      "longitude": 127.4231359
    },
    {
      "no": 100,
      "name": "24시 팔용feel동물병원",
      "address": "경상남도 창원시 의창구 팔용동 42-36",
      "latitude": 35.2521502,
      "longitude": 128.6199737
    },
    {
      "no": 101,
      "name": "24시 폴 동물병원",
      "address": "경기도 성남시 분당구 정자동 15-2",
      "latitude": 37.3705659,
      "longitude": 127.1074871
    },
    {
      "no": 102,
      "name": "24시 휴동물의료센터",
      "address": "부산광역시 부산진구 전포동 876-7",
      "latitude": 35.161786,
      "longitude": 129.0628243
    },
    {
      "no": 103,
      "name": "24시 SNC 동물메디컬센터",
      "address": "서울특별시 강남구 역삼동 727-8",
      "latitude": 37.4974247,
      "longitude": 127.0389213
    },
    {
      "no": 104,
      "name": "24시간 대전동물메디컬센터 숲",
      "address": "대전광역시 유성구 봉명동 664-3",
      "latitude": 36.3591737,
      "longitude": 127.3527113
    },
    {
      "no": 105,
      "name": "24시꿈동물병원",
      "address": "경기도 수원시 권선구 권선동 941-5",
      "latitude": 37.2632536,
      "longitude": 127.0247007
    },
    {
      "no": 106,
      "name": "24시노아동물메디컬센터",
      "address": "광주광역시 동구 대인동 320-1",
      "latitude": 35.1567944,
      "longitude": 126.9131448
    },
    {
      "no": 107,
      "name": "24시더나은동물메디컬센터",
      "address": "경상남도 거제시 고현동 203-1",
      "latitude": 34.8829948,
      "longitude": 128.6252896
    },
    {
      "no": 108,
      "name": "24시도안동물메디컬센터",
      "address": "대전광역시 서구 도안동 1789",
      "latitude": 36.3052469,
      "longitude": 127.3518206
    },
    {
      "no": 109,
      "name": "24시동물병원",
      "address": "경기도 용인시 기흥구 구갈동 391-5",
      "latitude": 37.2791046,
      "longitude": 127.1110131
    },
    {
      "no": 110,
      "name": "24시동물병원",
      "address": "제주특별자치도 제주시 도남동 81-7",
      "latitude": 33.4929194,
      "longitude": 126.5298114
    },
    {
      "no": 111,
      "name": "24시동탄윌동물의료센터",
      "address": "경기도 화성시 반송동 93-9",
      "latitude": 37.202329,
      "longitude": 127.0715545
    },
    {
      "no": 112,
      "name": "24시똑똑똑 동물메디컬센터",
      "address": "제주특별자치도 제주시 연동 2333-8",
      "latitude": 33.4930328,
      "longitude": 126.4907617
    },
    {
      "no": 113,
      "name": "24시똑똑똑동물메디컬센터",
      "address": "제주특별자치도 제주시 연동 2333-8",
      "latitude": 33.4930328,
      "longitude": 126.4907617
    },
    {
      "no": 114,
      "name": "24시루시드동물메디컬센터",
      "address": "서울특별시 강북구 미아동 42-11",
      "latitude": 37.6095707,
      "longitude": 127.030631
    },
    {
      "no": 115,
      "name": "24시마음든든동물병원",
      "address": "경기도 안양시 만안구 석수동 168-27",
      "latitude": 37.4184377,
      "longitude": 126.9118985
    },
    {
      "no": 116,
      "name": "24시멍냥마켓",
      "address": "경기도 수원시 권선구 금곡동 1077",
      "latitude": 37.2755624,
      "longitude": 126.9404337
    },
    {
      "no": 117,
      "name": "24시멍냥마켓 매탄점",
      "address": "경기도 수원시 영통구 매탄동 131-2",
      "latitude": 37.2737533,
      "longitude": 127.0463439
    },
    {
      "no": 118,
      "name": "24시배곧스마트동물의료센터",
      "address": "경기도 시흥시 배곧동 194-2",
      "latitude": 37.3702611,
      "longitude": 126.7295206
    },
    {
      "no": 119,
      "name": "24시보듬동물병원",
      "address": "강원도 강릉시 임당동 134-6",
      "latitude": 37.7532018,
      "longitude": 128.8940369
    },
    {
      "no": 120,
      "name": "24시분당리더스동물의료원",
      "address": "경기도 성남시 분당구 구미동 157",
      "latitude": 37.3400337,
      "longitude": 127.1083787
    },
    {
      "no": 121,
      "name": "24시새벽약국",
      "address": "광주광역시 광산구 장덕동 1105",
      "latitude": 35.1964286,
      "longitude": 126.8199861
    },
    {
      "no": 122,
      "name": "24시센트럴동물메디컬센터",
      "address": "서울특별시 성동구 행당동 318-36",
      "latitude": 37.5586791,
      "longitude": 127.0336913
    },
    {
      "no": 123,
      "name": "24시스마일동물병원",
      "address": "경기도 이천시 진리동 27-3",
      "latitude": 37.2731068,
      "longitude": 127.4526925
    },
    {
      "no": 124,
      "name": "24시스마트동물메디컬센터",
      "address": "서울특별시 은평구 응암동 91-5",
      "latitude": 37.5997808,
      "longitude": 126.9181271
    },
    {
      "no": 125,
      "name": "24시쎈텀동물병원",
      "address": "경기도 김포시 고촌읍 신곡리 880-1",
      "latitude": 37.593751,
      "longitude": 126.7639542
    },
    {
      "no": 126,
      "name": "24시아프리카동물메디컬센터",
      "address": "서울특별시 강서구 등촌동 664-1",
      "latitude": 37.5582022,
      "longitude": 126.84492
    },
    {
      "no": 127,
      "name": "24시알파동물메디컬센터",
      "address": "대구광역시 서구 내당동 469-1",
      "latitude": 35.8592475,
      "longitude": 128.5567432
    },
    {
      "no": 128,
      "name": "24시약국",
      "address": "경상남도 통영시 무전동 990-9",
      "latitude": 34.8575902,
      "longitude": 128.4293861
    },
    {
      "no": 129,
      "name": "24시연동물의료센터",
      "address": "서울특별시 강서구 화곡동 1060-30",
      "latitude": 37.5429872,
      "longitude": 126.8421905
    },
    {
      "no": 130,
      "name": "24시예담동물의료센터",
      "address": "서울특별시 은평구 역촌동 7-15",
      "latitude": 37.6095895,
      "longitude": 126.9168125
    },
    {
      "no": 131,
      "name": "24시예스동물병원",
      "address": "서울특별시 서초구 반포동 20-45",
      "latitude": 37.5071264,
      "longitude": 127.0098413
    },
    {
      "no": 132,
      "name": "24시위드동물병원",
      "address": "경기도 시흥시 정왕동 1734-7",
      "latitude": 37.3449572,
      "longitude": 126.738475
    },
    {
      "no": 133,
      "name": "24시잠실ON동물의료센터",
      "address": "서울특별시 송파구 잠실동 175-6",
      "latitude": 37.5115663,
      "longitude": 127.0790214
    },
    {
      "no": 134,
      "name": "24시지구촌동물메디컬센터",
      "address": "서울특별시 구로구 구로동 505-17",
      "latitude": 37.4987925,
      "longitude": 126.884781
    },
    {
      "no": 135,
      "name": "24시청주i동물병원",
      "address": "충청북도 청주시 청원구 율량동 1070",
      "latitude": 36.6658986,
      "longitude": 127.4929822
    },
    {
      "no": 136,
      "name": "24시큰사랑동물병원",
      "address": "경기도 이천시 중리동 468-24",
      "latitude": 37.2753266,
      "longitude": 127.4496609
    },
    {
      "no": 137,
      "name": "24시프라임동물병원",
      "address": "대구광역시 달서구 대곡동 964",
      "latitude": 35.8101978,
      "longitude": 128.5154607
    },
    {
      "no": 138,
      "name": "24시해든동물메디컬센터",
      "address": "경기도 부천시 중동 1106",
      "latitude": 37.501403,
      "longitude": 126.7772099
    },
    {
      "no": 139,
      "name": "24시OK동물병원",
      "address": "서울특별시 강남구 역삼동 766-20",
      "latitude": 37.4955787,
      "longitude": 127.0498106
    },
    {
      "no": 140,
      "name": "24시SD동물영상의료센터",
      "address": "서울특별시 중구 신당동 855",
      "latitude": 37.5642528,
      "longitude": 127.0249164
    },
    {
      "no": 141,
      "name": "25세 동물병원",
      "address": "경상북도 칠곡군 왜관읍 석전리 536-8",
      "latitude": 36.0008124,
      "longitude": 128.4085191
    },
    {
      "no": 142,
      "name": "25시 동물병원",
      "address": "경기도 성남시 중원구 은행동 1589",
      "latitude": 37.456038,
      "longitude": 127.1629569
    },
    {
      "no": 143,
      "name": "25시 동물병원",
      "address": "부산광역시 남구 문현동 359-20",
      "latitude": 35.1365037,
      "longitude": 129.0714781
    },
    {
      "no": 144,
      "name": "25시 종합동물병원",
      "address": "경기도 오산시 오산동 869-35",
      "latitude": 37.1490476,
      "longitude": 127.0721293
    },
    {
      "no": 145,
      "name": "25시 죽곡동물병원",
      "address": "대구광역시 달성군 다사읍 죽곡리 813",
      "latitude": 35.8551256,
      "longitude": 128.4643308
    },
    {
      "no": 146,
      "name": "25시동물병원",
      "address": "서울특별시 노원구 중계동 363",
      "latitude": 37.6472756,
      "longitude": 127.0779151
    },
    {
      "no": 147,
      "name": "25시동물의료센터",
      "address": "서울특별시 송파구 삼전동 5-3",
      "latitude": 37.5055466,
      "longitude": 127.0894032
    },
    {
      "no": 148,
      "name": "25시종합동물병원",
      "address": "대구광역시 달서구 송현동 798-244",
      "latitude": 35.8248432,
      "longitude": 128.546929
    },
    {
      "no": 149,
      "name": "2층스타약국",
      "address": "서울특별시 은평구 진관동 62",
      "latitude": 37.6349638,
      "longitude": 126.9179775
    },
    {
      "no": 150,
      "name": "2층약국",
      "address": "경기도 안양시 동안구 호계동 873",
      "latitude": 37.3622599,
      "longitude": 126.9625203
    },
    {
      "no": 151,
      "name": "2층엔약국",
      "address": "경기도 남양주시 다산동 6058",
      "latitude": 37.625529,
      "longitude": 127.1520936
    },
    {
      "no": 152,
      "name": "2층은약국",
      "address": "서울특별시 동작구 흑석동 1-3",
      "latitude": 37.5097214,
      "longitude": 126.9639312
    },
    {
      "no": 153,
      "name": "2층종로약국",
      "address": "서울특별시 은평구 불광동 311-13",
      "latitude": 37.6196342,
      "longitude": 126.9214784
    },
    {
      "no": 154,
      "name": "2층푸른약국",
      "address": "경기도 고양시 덕양구 도내동 950",
      "latitude": 37.6362601,
      "longitude": 126.8703322
    },
    {
      "no": 155,
      "name": "2층하늘약국",
      "address": "서울특별시 마포구 중동 64-25",
      "latitude": 37.5701633,
      "longitude": 126.9038467
    },
    {
      "no": 156,
      "name": "2층하늘약국",
      "address": "경상남도 창원시 의창구 북면 무동리 146-4",
      "latitude": 35.3172389,
      "longitude": 128.585285
    },
    {
      "no": 157,
      "name": "2Cats",
      "address": "서울특별시 종로구 인사동 146",
      "latitude": 37.5718255,
      "longitude": 126.9867863
    },
    {
      "no": 158,
      "name": "306퍼피",
      "address": "광주광역시 서구 마륵동 496-8",
      "latitude": 35.1447968,
      "longitude": 126.838307
    },
    {
      "no": 159,
      "name": "315아트센터",
      "address": "경상남도 창원시 마산회원구 양덕동 532-3",
      "latitude": 35.2258547,
      "longitude": 128.5772581
    },
    {
      "no": 160,
      "name": "331멍발소",
      "address": "서울특별시 동대문구 제기동 331",
      "latitude": 37.5850137,
      "longitude": 127.0414858
    },
    {
      "no": 161,
      "name": "365 건강약국",
      "address": "인천광역시 계양구 임학동 67-9",
      "latitude": 37.5447929,
      "longitude": 126.7380069
    },
    {
      "no": 162,
      "name": "365 녹십자약국",
      "address": "경기도 평택시 통복동 111-15",
      "latitude": 36.9953709,
      "longitude": 127.0836011
    },
    {
      "no": 163,
      "name": "365 마음동물병원",
      "address": "서울특별시 구로구 궁동 170-11",
      "latitude": 37.4962789,
      "longitude": 126.8300231
    },
    {
      "no": 164,
      "name": "365 신원당 동물병원",
      "address": "경기도 고양시 덕양구 성사동 706-4",
      "latitude": 37.6544495,
      "longitude": 126.8404053
    },
    {
      "no": 165,
      "name": "365 우리약국",
      "address": "전라남도 나주시 빛가람동 189-2",
      "latitude": 35.0215765,
      "longitude": 126.7853877
    },
    {
      "no": 166,
      "name": "365 종로약국",
      "address": "서울특별시 동대문구 답십리동 258-6",
      "latitude": 37.5702749,
      "longitude": 127.0574083
    },
    {
      "no": 167,
      "name": "365건강온누리약국",
      "address": "제주특별자치도 제주시 이도일동 1774-8",
      "latitude": 33.50075,
      "longitude": 126.5281949
    },
    {
      "no": 168,
      "name": "365구생약국",
      "address": "서울특별시 은평구 대조동 6-9",
      "latitude": 37.6112040999999,
      "longitude": 126.9286499
    },
    {
      "no": 169,
      "name": "365굿모닝약국",
      "address": "경기도 광명시 철산동 426",
      "latitude": 37.4740402,
      "longitude": 126.869688
    },
    {
      "no": 170,
      "name": "365그린약국",
      "address": "서울특별시 강서구 화곡동 343-52",
      "latitude": 37.5316218,
      "longitude": 126.8465384
    },
    {
      "no": 171,
      "name": "365그린약국",
      "address": "경기도 성남시 분당구 금곡동 161",
      "latitude": 37.3507531,
      "longitude": 127.1082899
    },
    {
      "no": 172,
      "name": "365동물병원",
      "address": "서울특별시 도봉구 방학동 713-35",
      "latitude": 37.6629674,
      "longitude": 127.0463638
    },
    {
      "no": 173,
      "name": "365동물병원 분당점",
      "address": "경기도 성남시 분당구 구미동 30",
      "latitude": 37.3489258,
      "longitude": 127.1104646
    },
    {
      "no": 174,
      "name": "365동물병원위례점",
      "address": "경기도 성남시 수정구 창곡동 513",
      "latitude": 37.4734979,
      "longitude": 127.149977
    },
    {
      "no": 175,
      "name": "365동판교동물병원",
      "address": "경기도 성남시 분당구 백현동 564-5",
      "latitude": 37.3854765,
      "longitude": 127.1114388
    },
    {
      "no": 176,
      "name": "365드림동물약국",
      "address": "경기도 남양주시 호평동 638",
      "latitude": 37.6540729,
      "longitude": 127.2428996
    },
    {
      "no": 177,
      "name": "365라피에스타약국",
      "address": "인천광역시 남동구 논현동 747-1",
      "latitude": 37.3974055,
      "longitude": 126.7274143
    },
    {
      "no": 178,
      "name": "365마트약국",
      "address": "서울특별시 영등포구 영등포동8가 62-1",
      "latitude": 37.5278069,
      "longitude": 126.9046657
    },
    {
      "no": 179,
      "name": "365매일약국",
      "address": "경상남도 양산시 물금읍 가촌리 1280-2",
      "latitude": 35.3163631,
      "longitude": 129.0036699
    },
    {
      "no": 180,
      "name": "365문화전당약국",
      "address": "광주광역시 동구 광산동 76",
      "latitude": 35.1466078,
      "longitude": 126.9185236
    },
    {
      "no": 181,
      "name": "365미소약국",
      "address": "서울특별시 은평구 진관동 64",
      "latitude": 37.6413930999999,
      "longitude": 126.9203578
    },
    {
      "no": 182,
      "name": "365박달온누리약국",
      "address": "경기도 안양시 만안구 박달동 19-4",
      "latitude": 37.4027697,
      "longitude": 126.9106193
    },
    {
      "no": 183,
      "name": "365밝은약국",
      "address": "경기도 광명시 광명동 158-72",
      "latitude": 37.4803504,
      "longitude": 126.8551711
    },
    {
      "no": 184,
      "name": "365보배약국",
      "address": "전라남도 순천시 조례동 889-1",
      "latitude": 34.9617067,
      "longitude": 127.5178223
    },
    {
      "no": 185,
      "name": "365부평프라자약국",
      "address": "인천광역시 부평구 부평동 543-63",
      "latitude": 37.4941888,
      "longitude": 126.7225732
    },
    {
      "no": 186,
      "name": "365상무중앙약국",
      "address": "광주광역시 서구 치평동 1236-3",
      "latitude": 35.1521993,
      "longitude": 126.8489093
    },
    {
      "no": 187,
      "name": "365새누리약국",
      "address": "서울특별시 양천구 목동 792-4",
      "latitude": 37.5328245,
      "longitude": 126.8641617
    },
    {
      "no": 188,
      "name": "365세심당약국",
      "address": "경기도 안성시 인지동 414-1",
      "latitude": 37.005168,
      "longitude": 127.2675703
    },
    {
      "no": 189,
      "name": "365스마일약국",
      "address": "충청남도 홍성군 홍북읍 신경리 1188",
      "latitude": 36.6468593,
      "longitude": 126.6764602
    },
    {
      "no": 190,
      "name": "365스마일약국",
      "address": "대전광역시 서구 관저동 1952-3",
      "latitude": 36.296766,
      "longitude": 127.3261271
    },
    {
      "no": 191,
      "name": "365약국",
      "address": "서울특별시 성북구 길음동 21-79",
      "latitude": 37.6086301,
      "longitude": 127.0294546
    },
    {
      "no": 192,
      "name": "365약국",
      "address": "경기도 동두천시 지행동 693-5",
      "latitude": 37.8926739,
      "longitude": 127.0532342
    },
    {
      "no": 193,
      "name": "365약국",
      "address": "경기도 하남시 망월동 1079",
      "latitude": 37.5667823,
      "longitude": 127.1892413
    },
    {
      "no": 194,
      "name": "365약국",
      "address": "인천광역시 계양구 작전동 911-7",
      "latitude": 37.5309437,
      "longitude": 126.737813
    },
    {
      "no": 195,
      "name": "365약국",
      "address": "경상북도 안동시 옥동 773-14",
      "latitude": 36.5638018,
      "longitude": 128.7016109
    },
    {
      "no": 196,
      "name": "365에펠약국",
      "address": "경기도 하남시 망월동 1100",
      "latitude": 37.5637939,
      "longitude": 127.1917727
    },
    {
      "no": 197,
      "name": "365열린동물약국",
      "address": "경상북도 포항시 북구 우현동 72-2",
      "latitude": 36.0511897,
      "longitude": 129.3621471
    },
    {
      "no": 198,
      "name": "365열린약국",
      "address": "서울특별시 마포구 신공덕동 167",
      "latitude": 37.5435,
      "longitude": 126.9528668
    },
    {
      "no": 199,
      "name": "365열린약국",
      "address": "서울특별시 영등포구 영등포동8가 35-1",
      "latitude": 37.5267486,
      "longitude": 126.9050364
    },
    {
      "no": 200,
      "name": "365열린약국",
      "address": "서울특별시 구로구 개봉동 203-7",
      "latitude": 37.4941054,
      "longitude": 126.8582782
    },
    {
      "no": 201,
      "name": "365열린약국",
      "address": "경기도 오산시 원동 423-1",
      "latitude": 37.1366681,
      "longitude": 127.0727812
    },
    {
      "no": 202,
      "name": "365열린약국",
      "address": "인천광역시 부평구 부개동 210",
      "latitude": 37.4889989,
      "longitude": 126.7396768
    },
    {
      "no": 203,
      "name": "365열린약국",
      "address": "충청남도 천안시 서북구 성정동 1292",
      "latitude": 36.8283722,
      "longitude": 127.1379962
    },
    {
      "no": 204,
      "name": "365열린약국",
      "address": "울산광역시 동구 일산동 945",
      "latitude": 35.4997958,
      "longitude": 129.4292672
    },
    {
      "no": 205,
      "name": "365열린온누리약국",
      "address": "인천광역시 미추홀구 용현동 568-1",
      "latitude": 37.4567439,
      "longitude": 126.6413068
    },
    {
      "no": 206,
      "name": "365열린큰약국",
      "address": "경기도 용인시 수지구 성복동 789",
      "latitude": 37.3126633,
      "longitude": 127.0828409
    },
    {
      "no": 207,
      "name": "365올리브약국",
      "address": "서울특별시 강북구 미아동 190-1",
      "latitude": 37.6305681,
      "longitude": 127.0249447
    },
    {
      "no": 208,
      "name": "365올바른약국",
      "address": "경기도 안양시 만안구 안양동 1391",
      "latitude": 37.3956218,
      "longitude": 126.9305209
    },
    {
      "no": 209,
      "name": "365우리약국",
      "address": "경기도 포천시 일동면 기산리 91-165",
      "latitude": 37.9574698,
      "longitude": 127.3178738
    },
    {
      "no": 210,
      "name": "365웃장대형약국",
      "address": "전라남도 순천시 매곡동 124-14",
      "latitude": 34.9577969,
      "longitude": 127.4844445
    },
    {
      "no": 211,
      "name": "365일박사약국",
      "address": "전라북도 전주시 덕진구 장동 1111",
      "latitude": 35.839004,
      "longitude": 127.0601374
    },
    {
      "no": 212,
      "name": "365정화약국",
      "address": "서울특별시 노원구 상계동 693-4",
      "latitude": 37.6561859,
      "longitude": 127.0614912
    },
    {
      "no": 213,
      "name": "365조은약국",
      "address": "경기도 시흥시 조남동 677",
      "latitude": 37.3735073,
      "longitude": 126.8548188
    },
    {
      "no": 214,
      "name": "365종로약국",
      "address": "경기도 고양시 일산서구 일산동 1080",
      "latitude": 37.6774925,
      "longitude": 126.7691031
    },
    {
      "no": 215,
      "name": "365종로약국",
      "address": "전라남도 나주시 대호동 1031-1",
      "latitude": 35.0427032,
      "longitude": 126.7171044
    },
    {
      "no": 216,
      "name": "365종로온누리약국",
      "address": "경기도 남양주시 진접읍 금곡리 1021-2",
      "latitude": 37.7206486,
      "longitude": 127.2027215
    },
    {
      "no": 217,
      "name": "365청솔약국",
      "address": "경상남도 창원시 마산합포구 해안대로 7",
      "latitude": 35.1807917,
      "longitude": 128.5597754
    },
    {
      "no": 218,
      "name": "365큰사랑 약국",
      "address": "대전광역시 중구 유천동 327-10",
      "latitude": 36.3171945,
      "longitude": 127.3918057
    },
    {
      "no": 219,
      "name": "365푸른약국",
      "address": "경기도 남양주시 다산동 6216-2",
      "latitude": 37.6011785,
      "longitude": 127.1743934
    },
    {
      "no": 220,
      "name": "365프라자약국",
      "address": "서울특별시 중랑구 묵동 162-2",
      "latitude": 37.6162803,
      "longitude": 127.079242
    },
    {
      "no": 221,
      "name": "365플러스약국",
      "address": "서울특별시 동대문구 용두동 33-1",
      "latitude": 37.5745098,
      "longitude": 127.0387891
    },
    {
      "no": 222,
      "name": "365행복약국",
      "address": "서울특별시 노원구 하계동 284",
      "latitude": 37.6378658,
      "longitude": 127.068707
    },
    {
      "no": 223,
      "name": "365행복약국",
      "address": "경기도 시흥시 정왕동 2326-1",
      "latitude": 37.3511722,
      "longitude": 126.7428969
    },
    {
      "no": 224,
      "name": "365행복약국",
      "address": "인천광역시 남동구 논현동 632-1",
      "latitude": 37.4015083,
      "longitude": 126.7220846
    },
    {
      "no": 225,
      "name": "365행운약국",
      "address": "경기도 고양시 일산서구 일산동 1681-1",
      "latitude": 37.6836323,
      "longitude": 126.7754285
    },
    {
      "no": 226,
      "name": "369펜션",
      "address": "제주특별자치도 제주시 조천읍 와흘리 243",
      "latitude": 33.4736436,
      "longitude": 126.6456718
    },
    {
      "no": 227,
      "name": "38 COFFEE",
      "address": "강원도 인제군 남면 부평리 1070-2",
      "latitude": 38.0015664,
      "longitude": 128.1157748
    },
    {
      "no": 228,
      "name": "38 DEGREE",
      "address": "강원도 속초시 조양동 1551-4",
      "latitude": 38.1910631,
      "longitude": 128.5882195
    },
    {
      "no": 229,
      "name": "38도씨식당",
      "address": "서울특별시 마포구 서교동 409-11",
      "latitude": 37.5494066,
      "longitude": 126.9215998
    },
    {
      "no": 230,
      "name": "3층 온누리약국",
      "address": "경기도 용인시 기흥구 구갈동 660",
      "latitude": 37.2774751,
      "longitude": 127.1229841
    },
    {
      "no": 231,
      "name": "3층 조은약국",
      "address": "인천광역시 서구 청라동 97-4",
      "latitude": 37.5320312,
      "longitude": 126.6302278
    },
    {
      "no": 232,
      "name": "3층365약국",
      "address": "경기도 고양시 일산동구 장항동 861",
      "latitude": 37.6575766,
      "longitude": 126.7708648
    },
    {
      "no": 233,
      "name": "3층약국",
      "address": "서울특별시 마포구 중동 64-25",
      "latitude": 37.5701633,
      "longitude": 126.9038467
    },
    {
      "no": 234,
      "name": "3층엔 참약국",
      "address": "경기도 남양주시 호평동 641",
      "latitude": 37.654107,
      "longitude": 127.2441144
    },
    {
      "no": 235,
      "name": "3층엠코약국",
      "address": "서울특별시 중랑구 상봉동 500",
      "latitude": 37.5981008,
      "longitude": 127.0905139
    },
    {
      "no": 236,
      "name": "3층온누리약국",
      "address": "경기도 부천시 심곡본동 588-1",
      "latitude": 37.4834506,
      "longitude": 126.7766859
    },
    {
      "no": 237,
      "name": "3층큰별약국",
      "address": "경기도 안산시 상록구 성포동 583",
      "latitude": 37.3218081,
      "longitude": 126.843869
    },
    {
      "no": 238,
      "name": "3층파란문약국",
      "address": "서울특별시 용산구 한강로2가 420",
      "latitude": 37.527275,
      "longitude": 126.9652809
    },
    {
      "no": 239,
      "name": "3층행복약국",
      "address": "경기도 성남시 분당구 이매동 120-6",
      "latitude": 37.3911639,
      "longitude": 127.1262183
    },
    {
      "no": 240,
      "name": "41번길약국",
      "address": "부산광역시 수영구 망미동 442-10",
      "latitude": 35.1751621,
      "longitude": 129.1065062
    },
    {
      "no": 241,
      "name": "41약국",
      "address": "서울특별시 양천구 목동 917-9",
      "latitude": 37.5281764,
      "longitude": 126.8758132
    },
    {
      "no": 242,
      "name": "4층 다나약국",
      "address": "서울특별시 관악구 봉천동 859-17",
      "latitude": 37.482716,
      "longitude": 126.9532297
    },
    {
      "no": 243,
      "name": "4u동물메디컬센타",
      "address": "경기도 안산시 단원구 고잔동 772-1",
      "latitude": 37.3090239,
      "longitude": 126.8306386
    },
    {
      "no": 244,
      "name": "518기념공원",
      "address": "광주광역시 서구 쌍촌동 1268",
      "latitude": 35.1558018,
      "longitude": 126.8571469
    },
    {
      "no": 245,
      "name": "518기념문화센터",
      "address": "광주광역시 서구 쌍촌동 1268",
      "latitude": 35.1558018,
      "longitude": 126.8571469
    },
    {
      "no": 246,
      "name": "521펫살롱",
      "address": "부산광역시 연제구 거제동 41-5",
      "latitude": 35.18395,
      "longitude": 129.0734149
    },
    {
      "no": 247,
      "name": "525그루밍",
      "address": "대구광역시 중구 남산동 2272-19",
      "latitude": 35.8594512,
      "longitude": 128.5766196
    },
    {
      "no": 248,
      "name": "59캣독",
      "address": "경상남도 거제시 고현동 405-15",
      "latitude": 34.8792037,
      "longitude": 128.6281322
    },
    {
      "no": 249,
      "name": "5층약국",
      "address": "경기도 부천시 상동 541-1",
      "latitude": 37.5051425,
      "longitude": 126.7537473
    },
    {
      "no": 250,
      "name": "5층우리약국",
      "address": "경기도 용인시 수지구 풍덕천동 715-2",
      "latitude": 37.3246135,
      "longitude": 127.0976027
    },
    {
      "no": 251,
      "name": "625전쟁체험기념관",
      "address": "강원도 고성군 현내면 명호리 88-8",
      "latitude": 38.584076,
      "longitude": 128.3738219
    },
    {
      "no": 252,
      "name": "63아트",
      "address": "서울특별시 영등포구 여의도동 60",
      "latitude": 37.5198332,
      "longitude": 126.9400724
    },
    {
      "no": 253,
      "name": "7번약국",
      "address": "서울특별시 강북구 수유동 191-17",
      "latitude": 37.6382492,
      "longitude": 127.0254924
    },
    {
      "no": 254,
      "name": "7번약국",
      "address": "부산광역시 수영구 광안동 51-5",
      "latitude": 35.1669885,
      "longitude": 129.1159364
    },
    {
      "no": 255,
      "name": "8번가위드팜약국",
      "address": "서울특별시 서대문구 대신동 50-5",
      "latitude": 37.5630923,
      "longitude": 126.943249
    },
    {
      "no": 256,
      "name": "92버터샵",
      "address": "경상북도 구미시 옥계동 743-1",
      "latitude": 36.1377295,
      "longitude": 128.4238303
    },
    {
      "no": 257,
      "name": "953공방",
      "address": "부산광역시 남구 대연동 53-8",
      "latitude": 35.1369543,
      "longitude": 129.1019819
    },
    {
      "no": 258,
      "name": "9시약국",
      "address": "경기도 부천시 원종동 372",
      "latitude": 37.5195326,
      "longitude": 126.8051948
    },
    {
      "no": 259,
      "name": "가가약국",
      "address": "대구광역시 달서구 상인동 171-1",
      "latitude": 35.8181693,
      "longitude": 128.5334098
    },
    {
      "no": 260,
      "name": "가가호호오도독",
      "address": "경상북도 칠곡군 왜관읍 왜관리 268-67",
      "latitude": 35.9905045,
      "longitude": 128.3956068
    },
    {
      "no": 261,
      "name": "가경 나음 동물병원",
      "address": "충청북도 청주시 흥덕구 가경동 2225",
      "latitude": 36.6187233,
      "longitude": 127.4323974
    },
    {
      "no": 262,
      "name": "가경공원",
      "address": "충청북도 청주시 흥덕구 가경동 산 84-1",
      "latitude": 36.6126507,
      "longitude": 127.4368727
    },
    {
      "no": 263,
      "name": "가고파 약국",
      "address": "경상남도 창원시 마산합포구 장군동5가 15-1",
      "latitude": 35.1998708,
      "longitude": 128.5660376
    },
    {
      "no": 264,
      "name": "가곡우리약국",
      "address": "전라남도 순천시 고지1길 4",
      "latitude": 34.980094,
      "longitude": 127.4845574
    },
    {
      "no": 265,
      "name": "가까운 광명약국",
      "address": "경기도 광명시 일직동 501-4",
      "latitude": 37.4212396,
      "longitude": 126.886224
    },
    {
      "no": 266,
      "name": "가까운 대학약국",
      "address": "경기도 이천시 관고동 514",
      "latitude": 37.2829856,
      "longitude": 127.4347955
    },
    {
      "no": 267,
      "name": "가까운 새서울약국",
      "address": "서울특별시 송파구 풍납동 271-15",
      "latitude": 37.5308154,
      "longitude": 127.112287
    },
    {
      "no": 268,
      "name": "가까운 약국",
      "address": "부산광역시 부산진구 부전동 486-5",
      "latitude": 35.1579645,
      "longitude": 129.056808
    },
    {
      "no": 269,
      "name": "가까운 온누리 약국",
      "address": "경상북도 포항시 남구 대잠동 221",
      "latitude": 36.0133273,
      "longitude": 129.3408595
    },
    {
      "no": 270,
      "name": "가까운 정문약국",
      "address": "경기도 안성시 당왕동 437",
      "latitude": 37.0165435,
      "longitude": 127.2612767
    },
    {
      "no": 271,
      "name": "가까운 태평양약국",
      "address": "경기도 성남시 수정구 태평동 7288-3",
      "latitude": 37.4438132,
      "longitude": 127.1390603
    },
    {
      "no": 272,
      "name": "가까운동물병원",
      "address": "충청북도 청주시 서원구 분평동 1368",
      "latitude": 36.6065885,
      "longitude": 127.4899923
    },
    {
      "no": 273,
      "name": "가까운사랑약국",
      "address": "서울특별시 강동구 명일동 346-1",
      "latitude": 37.5461465,
      "longitude": 127.1434302
    },
    {
      "no": 274,
      "name": "가까운약국",
      "address": "서울특별시 영등포구 문래동3가 55-5",
      "latitude": 37.517427,
      "longitude": 126.8964674
    },
    {
      "no": 275,
      "name": "가까운약국",
      "address": "서울특별시 금천구 시흥동 852-29",
      "latitude": 37.4591801,
      "longitude": 126.904869
    },
    {
      "no": 276,
      "name": "가까운약국",
      "address": "서울특별시 관악구 봉천동 463-4",
      "latitude": 37.4861536,
      "longitude": 126.9473568
    },
    {
      "no": 277,
      "name": "가까운약국",
      "address": "경기도 고양시 일산동구 백석동 1238",
      "latitude": 37.644861,
      "longitude": 126.792092
    },
    {
      "no": 278,
      "name": "가까운약국",
      "address": "경기도 이천시 장호원읍 장호원리 341-3",
      "latitude": 37.1155325,
      "longitude": 127.6116993
    },
    {
      "no": 279,
      "name": "가까운약국",
      "address": "강원도 춘천시 효자동 15-3",
      "latitude": 37.8741254,
      "longitude": 127.7445138
    },
    {
      "no": 280,
      "name": "가까운약국",
      "address": "충청북도 청주시 청원구 율량동 713-2",
      "latitude": 36.6717922,
      "longitude": 127.4854
    },
    {
      "no": 281,
      "name": "가까운약국",
      "address": "부산광역시 서구 서대신동3가 61-73",
      "latitude": 35.120543,
      "longitude": 129.0165781
    },
    {
      "no": 282,
      "name": "가까운약국",
      "address": "경상남도 거창군 거창읍 송정리 1096-2",
      "latitude": 35.6816929,
      "longitude": 127.8984989
    },
    {
      "no": 283,
      "name": "가까운약국",
      "address": "경상남도 김해시 구산동 706-7",
      "latitude": 35.2563507,
      "longitude": 128.8702206
    },
    {
      "no": 284,
      "name": "가까운약국",
      "address": "경상남도 고성군 고성읍 서외리 16-16",
      "latitude": 34.9762584,
      "longitude": 128.3237868
    },
    {
      "no": 285,
      "name": "가까운약국",
      "address": "경상남도 통영시 무전동 1069",
      "latitude": 34.8607073,
      "longitude": 128.4281905
    },
    {
      "no": 286,
      "name": "가까운약국",
      "address": "제주특별자치도 제주시 노형동 924-1",
      "latitude": 33.4842114,
      "longitude": 126.4812619
    },
    {
      "no": 287,
      "name": "가까운온누리약국",
      "address": "서울특별시 양천구 신정동 321-6",
      "latitude": 37.5174938,
      "longitude": 126.8654977
    },
    {
      "no": 288,
      "name": "가까운온누리약국",
      "address": "경기도 안산시 단원구 고잔동 706-5",
      "latitude": 37.3128203,
      "longitude": 126.8292636
    },
    {
      "no": 289,
      "name": "가까운정문약국",
      "address": "서울특별시 중랑구 신내동 315-3",
      "latitude": 37.6142364,
      "longitude": 127.0972119
    },
    {
      "no": 290,
      "name": "가까운정문약국",
      "address": "경기도 의정부시 금오동 441-9",
      "latitude": 37.7511162,
      "longitude": 127.049566
    },
    {
      "no": 291,
      "name": "가까운정문약국",
      "address": "인천광역시 남동구 논현동 635-1",
      "latitude": 37.403141,
      "longitude": 126.7129767
    },
    {
      "no": 292,
      "name": "가까운평화약국",
      "address": "전라남도 순천시 해룡면 복성리 596-2",
      "latitude": 34.963591,
      "longitude": 127.5458034
    },
    {
      "no": 293,
      "name": "가나다 동물병원",
      "address": "부산광역시 사상구 주례동 191-17",
      "latitude": 35.1511879,
      "longitude": 129.0080515
    },
    {
      "no": 294,
      "name": "가나다동물병원",
      "address": "전라남도 해남군 해남읍 고도리 473-1",
      "latitude": 34.5658897,
      "longitude": 126.5945555
    },
    {
      "no": 295,
      "name": "가나동물병원(경기 부천)",
      "address": "경기도 부천시 송내동 393-1",
      "latitude": 37.4835129999999,
      "longitude": 126.7631762
    },
    {
      "no": 296,
      "name": "가나동물병원(경기 성남시)",
      "address": "경기도 성남시 수정구 신흥동 5536",
      "latitude": 37.4424783,
      "longitude": 127.1378158
    },
    {
      "no": 297,
      "name": "가나동물병원(경북 구미)",
      "address": "경상북도 구미시 원평동 1029-2",
      "latitude": 36.1260986,
      "longitude": 128.3389927
    },
    {
      "no": 298,
      "name": "가나동물병원(논산)",
      "address": "충청남도 논산시 연무읍 안심리 1-137",
      "latitude": 36.1316075,
      "longitude": 127.0985359
    },
    {
      "no": 299,
      "name": "가나동물병원(대구 북구)",
      "address": "대구광역시 북구 산격동 1216-4",
      "latitude": 35.8993239,
      "longitude": 128.6082469
    },
    {
      "no": 300,
      "name": "가나동물병원(서울 강동)",
      "address": "서울특별시 강동구 암사동 451-12",
      "latitude": 37.5549198,
      "longitude": 127.1367208
    },
    {
      "no": 301,
      "name": "가나동물병원(서울 도봉구)",
      "address": "서울특별시 도봉구 방학동 665-11",
      "latitude": 37.6627137,
      "longitude": 127.0340988
    },
    {
      "no": 302,
      "name": "가나동물병원(충남 아산)",
      "address": "충청남도 아산시 온천동 80-5",
      "latitude": 36.7809342,
      "longitude": 127.007326
    },
    {
      "no": 303,
      "name": "가나메디칼약국",
      "address": "인천광역시 부평구 부평동 199-20",
      "latitude": 37.4935562,
      "longitude": 126.723323
    },
    {
      "no": 304,
      "name": "가나안약국",
      "address": "경기도 부천시 심곡동 168-1",
      "latitude": 37.486802,
      "longitude": 126.7835652
    },
    {
      "no": 305,
      "name": "가나약국",
      "address": "경기도 고양시 일산서구 주엽동 110",
      "latitude": 37.6706572,
      "longitude": 126.7591817
    },
    {
      "no": 306,
      "name": "가나약국",
      "address": "경기도 하남시 풍산동 504",
      "latitude": 37.5575326,
      "longitude": 127.1880502
    },
    {
      "no": 307,
      "name": "가나약국",
      "address": "경기도 용인시 기흥구 청덕동 502-4",
      "latitude": 37.295582,
      "longitude": 127.1521407
    },
    {
      "no": 308,
      "name": "가나약국",
      "address": "대구광역시 달서구 상인동 162-2",
      "latitude": 35.8175028,
      "longitude": 128.5327706
    },
    {
      "no": 309,
      "name": "가나종합동물병원",
      "address": "서울특별시 양천구 목동 907",
      "latitude": 37.5357781,
      "longitude": 126.8804904
    },
    {
      "no": 310,
      "name": "가나종합동물병원",
      "address": "경상북도 포항시 북구 대흥동 619-42",
      "latitude": 36.035113,
      "longitude": 129.3619119
    },
    {
      "no": 311,
      "name": "가나종합동물병원",
      "address": "경상북도 경산시 옥산동 758-7",
      "latitude": 35.8246922,
      "longitude": 128.7277308
    },
    {
      "no": 312,
      "name": "가남프라자약국",
      "address": "경기도 여주시 가남읍 태평리 174-4",
      "latitude": 37.2040959,
      "longitude": 127.5445963
    },
    {
      "no": 313,
      "name": "가능동물병원",
      "address": "경기도 의정부시 가능동 668-13",
      "latitude": 37.7467582,
      "longitude": 127.0350705
    },
    {
      "no": 314,
      "name": "가능하주약국",
      "address": "경기도 의정부시 가능동 701-29",
      "latitude": 37.7428671,
      "longitude": 127.0290019
    },
    {
      "no": 315,
      "name": "가든블루",
      "address": "경기도 포천시 이동면 장암리 636-12",
      "latitude": 38.0436421,
      "longitude": 127.3745469
    },
    {
      "no": 316,
      "name": "가든애견샵",
      "address": "충청남도 보령시 대천동 394-4",
      "latitude": 36.3528274,
      "longitude": 126.5882408
    },
    {
      "no": 317,
      "name": "가든파이브약국",
      "address": "서울특별시 송파구 문정동 634",
      "latitude": 37.4776483,
      "longitude": 127.1249964
    },
    {
      "no": 318,
      "name": "가든펫동물병원",
      "address": "서울특별시 은평구 증산동 202-27",
      "latitude": 37.5869368,
      "longitude": 126.908564
    },
    {
      "no": 319,
      "name": "가디온누리약국",
      "address": "서울특별시 금천구 가산동 371-41",
      "latitude": 37.4807298,
      "longitude": 126.8807007
    },
    {
      "no": 320,
      "name": "가또블랑코",
      "address": "경기도 김포시 하성면 마곡리 489-8",
      "latitude": 37.7150113,
      "longitude": 126.6355393
    },
    {
      "no": 321,
      "name": "가락바위소류지",
      "address": "충청남도 아산시 탕정면 명암리 588",
      "latitude": 36.8075965,
      "longitude": 127.0594151
    },
    {
      "no": 322,
      "name": "가락약국",
      "address": "서울특별시 송파구 가락동 96-12",
      "latitude": 37.4949193,
      "longitude": 127.1171937
    },
    {
      "no": 323,
      "name": "가락종합동물병원",
      "address": "서울특별시 송파구 방이동 226-7",
      "latitude": 37.5063344,
      "longitude": 127.1210391
    },
    {
      "no": 324,
      "name": "가람동물병원(경기 고양)",
      "address": "경기도 고양시 일산동구 마두동 796",
      "latitude": 37.6544657,
      "longitude": 126.7790105
    },
    {
      "no": 325,
      "name": "가람동물병원(경기 구리)",
      "address": "경기도 구리시 인창동 346-40",
      "latitude": 37.604736,
      "longitude": 127.1396863
    },
    {
      "no": 326,
      "name": "가람동물병원(경기 김포)",
      "address": "경기도 김포시 양촌읍 양곡리 64",
      "latitude": 37.6665834,
      "longitude": 126.637103
    },
    {
      "no": 327,
      "name": "가람동물병원(경기 부천)",
      "address": "경기도 부천시 괴안동 109-5",
      "latitude": 37.4834194,
      "longitude": 126.8103917
    },
    {
      "no": 328,
      "name": "가람동물병원(경남 진주)",
      "address": "경상남도 진주시 칠암동 296-3",
      "latitude": 35.1858695,
      "longitude": 128.0879133
    },
    {
      "no": 329,
      "name": "가람동물병원(경주)",
      "address": "경상북도 경주시 외동읍 입실리 1046-17",
      "latitude": 35.7154682,
      "longitude": 129.323623
    },
    {
      "no": 330,
      "name": "가람동물병원(나주)",
      "address": "전라남도 나주시 빛가람동 283-3",
      "latitude": 35.019905,
      "longitude": 126.7913493
    },
    {
      "no": 331,
      "name": "가람동물병원(대구 달서구)",
      "address": "대구광역시 달서구 상인동 240-9",
      "latitude": 35.8167187,
      "longitude": 128.5393936
    },
    {
      "no": 332,
      "name": "가람동물병원(상주)",
      "address": "경상북도 상주시 복룡동 293-37",
      "latitude": 36.4161446,
      "longitude": 128.16821
    },
    {
      "no": 333,
      "name": "가람동물병원(서울 강동)",
      "address": "서울특별시 강동구 성내동 550-2",
      "latitude": 37.5290333,
      "longitude": 127.1242015
    },
    {
      "no": 334,
      "name": "가람동물병원(제주)",
      "address": "제주특별자치도 서귀포시 대정읍 하모리 2142-7",
      "latitude": 33.219323,
      "longitude": 126.2527777
    },
    {
      "no": 335,
      "name": "가람동물병원(창원)",
      "address": "경상남도 창원시 마산회원구 합성동 134-2",
      "latitude": 35.2453103,
      "longitude": 128.5893079
    },
    {
      "no": 336,
      "name": "가람약국",
      "address": "서울특별시 종로구 사직로8길 4",
      "latitude": 37.5744169,
      "longitude": 126.9688811
    },
    {
      "no": 337,
      "name": "가람약국",
      "address": "서울특별시 양천구 목동 602-1",
      "latitude": 37.5490753,
      "longitude": 126.8678602
    },
    {
      "no": 338,
      "name": "가람약국",
      "address": "서울특별시 금천구 가산동 691",
      "latitude": 37.4668141,
      "longitude": 126.886852
    },
    {
      "no": 339,
      "name": "가람약국",
      "address": "경기도 김포시 고촌읍 신곡리 574-4",
      "latitude": 37.6000522,
      "longitude": 126.7710874
    },
    {
      "no": 340,
      "name": "가람약국",
      "address": "경기도 고양시 일산서구 대화동 2307-12",
      "latitude": 37.6687869,
      "longitude": 126.7497205
    },
    {
      "no": 341,
      "name": "가람약국",
      "address": "경기도 남양주시 다산동 4053-4",
      "latitude": 37.6061601,
      "longitude": 127.1572545
    },
    {
      "no": 342,
      "name": "가람약국",
      "address": "대구광역시 서구 비산동 1610-3",
      "latitude": 35.8899177,
      "longitude": 128.5558475
    },
    {
      "no": 343,
      "name": "가람약국",
      "address": "울산광역시 남구 달동 591-10",
      "latitude": 35.5370149,
      "longitude": 129.3246498
    },
    {
      "no": 344,
      "name": "가람약국",
      "address": "경상남도 거창군 거창읍 대동리 891",
      "latitude": 35.6872868,
      "longitude": 127.9165459
    },
    {
      "no": 345,
      "name": "가람유통",
      "address": "부산광역시 동래구 사직동 157-20",
      "latitude": 35.1985752,
      "longitude": 129.075169
    },
    {
      "no": 346,
      "name": "가람펫",
      "address": "경기도 광주시 송정동 58-9",
      "latitude": 37.4162765,
      "longitude": 127.2595392
    },
    {
      "no": 347,
      "name": "가로수동물병원",
      "address": "서울특별시 강남구 신사동 549-1",
      "latitude": 37.5243611,
      "longitude": 127.0234522
    },
    {
      "no": 348,
      "name": "가로수동물병원",
      "address": "광주광역시 서구 화정동 808-13",
      "latitude": 35.1446281,
      "longitude": 126.8737862
    },
    {
      "no": 349,
      "name": "가림약국",
      "address": "경기도 부천시 중동 1181",
      "latitude": 37.4990898,
      "longitude": 126.7697538
    },
    {
      "no": 350,
      "name": "가마미해수욕장",
      "address": "전라남도 영광군 홍농읍 계마리 802-1",
      "latitude": 35.3975708,
      "longitude": 126.4079692
    },
    {
      "no": 351,
      "name": "가믄장 동물병원",
      "address": "충청남도 금산군 금산읍 상리 127-4",
      "latitude": 36.1026382,
      "longitude": 127.4885822
    },
    {
      "no": 352,
      "name": "가산박물관",
      "address": "충청북도 옥천군 안내면 용촌리 221",
      "latitude": 36.4045999999999,
      "longitude": 127.6222176
    },
    {
      "no": 353,
      "name": "가산소중한약국",
      "address": "서울특별시 금천구 가산동 60-3",
      "latitude": 37.4809756,
      "longitude": 126.8863402
    },
    {
      "no": 354,
      "name": "가산약국",
      "address": "서울특별시 금천구 가산동 151-30",
      "latitude": 37.4761412,
      "longitude": 126.8931768
    },
    {
      "no": 355,
      "name": "가수원 프라자약국",
      "address": "대전광역시 서구 도안동 1782",
      "latitude": 36.3048051,
      "longitude": 127.3500422
    },
    {
      "no": 356,
      "name": "가수원근린공원",
      "address": "대전광역시 서구 가수원동 802-1",
      "latitude": 36.2981609,
      "longitude": 127.3519
    },
    {
      "no": 357,
      "name": "가야 애견용품할인마트",
      "address": "경기도 수원시 팔달구 매산로3가 63-3",
      "latitude": 37.2692145,
      "longitude": 127.0093631
    },
    {
      "no": 358,
      "name": "가야농업협동조합동물병원",
      "address": "경상남도 합천군 가야면 황산리 351",
      "latitude": 35.7635065,
      "longitude": 128.1350548
    },
    {
      "no": 359,
      "name": "가야동물병원",
      "address": "경기도 부천시 심곡동 367-12",
      "latitude": 37.4905814,
      "longitude": 126.7838873
    },
    {
      "no": 360,
      "name": "가야동물병원",
      "address": "경기도 수원시 팔달구 매산로3가 63-3",
      "latitude": 37.2692145,
      "longitude": 127.0093631
    },
    {
      "no": 361,
      "name": "가야동물병원",
      "address": "경상북도 김천시 남산동 12-3",
      "latitude": 36.1193793,
      "longitude": 128.1209603
    },
    {
      "no": 362,
      "name": "가야동물병원",
      "address": "경상남도 밀양시 내이동 1559-22",
      "latitude": 35.5015864,
      "longitude": 128.7454178
    },
    {
      "no": 363,
      "name": "가야동물병원",
      "address": "광주광역시 북구 우산동 206-8",
      "latitude": 35.1747421,
      "longitude": 126.9261778
    },
    {
      "no": 364,
      "name": "가야로약국",
      "address": "부산광역시 부산진구 개금동 554-1",
      "latitude": 35.1508906,
      "longitude": 129.0244944
    },
    {
      "no": 365,
      "name": "가야온누리약국",
      "address": "서울특별시 도봉구 창동 331-1",
      "latitude": 37.6519768,
      "longitude": 127.0457518
    },
    {
      "no": 366,
      "name": "가야종합동물병원",
      "address": "부산광역시 부산진구 개금동 186-22",
      "latitude": 35.1534596,
      "longitude": 129.0258174
    },
    {
      "no": 367,
      "name": "가양누리약국",
      "address": "서울특별시 강서구 가양동 1488",
      "latitude": 37.5612531,
      "longitude": 126.8602493
    },
    {
      "no": 368,
      "name": "가양동물병원",
      "address": "대전광역시 동구 가양동 418-11",
      "latitude": 36.3472013,
      "longitude": 127.4450547
    },
    {
      "no": 369,
      "name": "가양종로약국",
      "address": "서울특별시 강서구 등촌동 65-20",
      "latitude": 37.5624583,
      "longitude": 126.8515923
    },
    {
      "no": 370,
      "name": "가양쿨펫동물병원",
      "address": "서울특별시 강서구 가양동 18-24",
      "latitude": 37.5642688,
      "longitude": 126.8501054
    },
    {
      "no": 371,
      "name": "가양하늘약국",
      "address": "서울특별시 강서구 등촌동 628-6",
      "latitude": 37.559569,
      "longitude": 126.8547425
    },
    {
      "no": 372,
      "name": "가오온누리약국",
      "address": "대전광역시 동구 가오동 647",
      "latitude": 36.306192,
      "longitude": 127.4561197
    },
    {
      "no": 373,
      "name": "가온동물병원",
      "address": "서울특별시 강동구 고덕동 172-9",
      "latitude": 37.5606648,
      "longitude": 127.1704374
    },
    {
      "no": 374,
      "name": "가온동물병원",
      "address": "서울특별시 양천구 목동 721-1",
      "latitude": 37.5401617,
      "longitude": 126.8640711
    },
    {
      "no": 375,
      "name": "가온동물병원",
      "address": "충청남도 천안시 동남구 청당동 153-15",
      "latitude": 36.7808889,
      "longitude": 127.1550761
    },
    {
      "no": 376,
      "name": "가온동물병원",
      "address": "대구광역시 북구 서변동 1746-9",
      "latitude": 35.9214501,
      "longitude": 128.5964744
    },
    {
      "no": 377,
      "name": "가온동물병원",
      "address": "부산광역시 서구 서대신동1가 141-1",
      "latitude": 35.1091333,
      "longitude": 129.0152816
    },
    {
      "no": 378,
      "name": "가온동물병원",
      "address": "경상남도 양산시 물금읍 가촌리 1280-3",
      "latitude": 35.3160759,
      "longitude": 129.0040036
    },
    {
      "no": 379,
      "name": "가온동물병원",
      "address": "전라북도 김제시 신풍동 44-10",
      "latitude": 35.7938513,
      "longitude": 126.9014841
    },
    {
      "no": 380,
      "name": "가온동물의료센터",
      "address": "인천광역시 서구 가정동 619-7",
      "latitude": 37.526394,
      "longitude": 126.670905
    },
    {
      "no": 381,
      "name": "가온동물의료센터",
      "address": "경상남도 창원시 성산구 가음동 37-7",
      "latitude": 35.2054008,
      "longitude": 128.7030472
    },
    {
      "no": 382,
      "name": "가온샘약국",
      "address": "부산광역시 금정구 장전동 296-25",
      "latitude": 35.2278609,
      "longitude": 129.0876431
    },
    {
      "no": 383,
      "name": "가온약국",
      "address": "서울특별시 강서구 마곡동 791-9",
      "latitude": 37.5611218,
      "longitude": 126.836984
    },
    {
      "no": 384,
      "name": "가온약국",
      "address": "경기도 고양시 덕양구 행신동 1083",
      "latitude": 37.6182637,
      "longitude": 126.8459641
    },
    {
      "no": 385,
      "name": "가온약국",
      "address": "인천광역시 서구 가정동 619-1",
      "latitude": 37.5271955,
      "longitude": 126.6697425
    },
    {
      "no": 386,
      "name": "가온약국",
      "address": "충청북도 청주시 상당구 용암동 2014",
      "latitude": 36.6074225,
      "longitude": 127.5083912
    },
    {
      "no": 387,
      "name": "가온약국",
      "address": "대구광역시 동구 대림동 892-4",
      "latitude": 35.8729956,
      "longitude": 128.7495463
    },
    {
      "no": 388,
      "name": "가온약국",
      "address": "부산광역시 강서구 신호동 217-1",
      "latitude": 35.085967,
      "longitude": 128.8778254
    },
    {
      "no": 389,
      "name": "가온약국",
      "address": "경상남도 진주시 평거동 908",
      "latitude": 35.1696401,
      "longitude": 128.0531564
    },
    {
      "no": 390,
      "name": "가온온누리약국",
      "address": "서울특별시 양천구 목동 917-9",
      "latitude": 37.5281764,
      "longitude": 126.8758132
    },
    {
      "no": 391,
      "name": "가온온누리약국",
      "address": "경기도 파주시 와동동 1365-3",
      "latitude": 37.7236488,
      "longitude": 126.7531447
    },
    {
      "no": 392,
      "name": "가우도",
      "address": "전라남도 강진군 도암면 신기리",
      "latitude": 34.5269907,
      "longitude": 126.7567117
    },
    {
      "no": 393,
      "name": "가운이층약국",
      "address": "경기도 남양주시 다산동 668-3",
      "latitude": 37.6046039,
      "longitude": 127.1555675
    },
    {
      "no": 394,
      "name": "가원별장 펜션",
      "address": "경기도 양평군 단월면 명성리 613-3",
      "latitude": 37.6222379,
      "longitude": 127.6317503
    },
    {
      "no": 395,
      "name": "가원펫 부천점",
      "address": "경기도 부천시 송내동 572-7",
      "latitude": 37.4841731,
      "longitude": 126.7737251
    },
    {
      "no": 396,
      "name": "가원펫애견샵",
      "address": "서울특별시 양천구 신월동 607-1",
      "latitude": 37.5214502,
      "longitude": 126.8464686
    },
    {
      "no": 397,
      "name": "가은약국",
      "address": "서울특별시 관악구 봉천동 858-3",
      "latitude": 37.4816149,
      "longitude": 126.9537242
    },
    {
      "no": 398,
      "name": "가을애견미용실",
      "address": "충청남도 천안시 서북구 쌍용동 1215",
      "latitude": 36.8001169,
      "longitude": 127.1311454
    },
    {
      "no": 399,
      "name": "가음정약국",
      "address": "경상남도 창원시 성산구 가음동 7-3",
      "latitude": 35.2094117,
      "longitude": 128.6887881
    },
    {
      "no": 400,
      "name": "가이아펫",
      "address": "경기도 용인시 수지구 신봉동 25-1",
      "latitude": 37.3225707,
      "longitude": 127.0786907
    },
    {
      "no": 401,
      "name": "가인동물병원",
      "address": "충청북도 충주시 연수동 1196",
      "latitude": 36.9825576,
      "longitude": 127.9318575
    },
    {
      "no": 402,
      "name": "가일미술관",
      "address": "경기도 가평군 청평면 삼회리 609-6",
      "latitude": 37.6603545,
      "longitude": 127.3795588
    },
    {
      "no": 403,
      "name": "가자펜션",
      "address": "경상남도 거제시 남부면 다포리 38-15",
      "latitude": 34.7159791,
      "longitude": 128.6263284
    },
    {
      "no": 404,
      "name": "가장빠른천사약국",
      "address": "서울특별시 송파구 풍납동 514-1",
      "latitude": 37.5264458,
      "longitude": 127.1149008
    },
    {
      "no": 405,
      "name": "가장아름답개",
      "address": "강원도 속초시 교동 658-49",
      "latitude": 38.2001478,
      "longitude": 128.580794
    },
    {
      "no": 406,
      "name": "가장큰동물약국",
      "address": "충청남도 아산시 모종동 656",
      "latitude": 36.7789564,
      "longitude": 127.0207503
    },
    {
      "no": 407,
      "name": "가장큰이대약국",
      "address": "서울특별시 강서구 마곡동 801-2",
      "latitude": 37.5584316,
      "longitude": 126.8349184
    },
    {
      "no": 408,
      "name": "가장큰태평양약국",
      "address": "서울특별시 용산구 한남동 653-1",
      "latitude": 37.5332825,
      "longitude": 127.0038542
    },
    {
      "no": 409,
      "name": "가장행복한대광약국",
      "address": "세종특별자치시 도담동 627",
      "latitude": 36.5175358,
      "longitude": 127.2569286
    },
    {
      "no": 410,
      "name": "가재울봉쥬르동물병원",
      "address": "서울특별시 서대문구 북가좌동 304-29",
      "latitude": 37.5771814,
      "longitude": 126.9108988
    },
    {
      "no": 411,
      "name": "가정동물병원",
      "address": "인천광역시 서구 가정동 517-32",
      "latitude": 37.5156645,
      "longitude": 126.6730307
    },
    {
      "no": 412,
      "name": "가정미소약국",
      "address": "인천광역시 서구 가정동 607-6",
      "latitude": 37.5294653,
      "longitude": 126.665663
    },
    {
      "no": 413,
      "name": "가정온누리약국",
      "address": "인천광역시 서구 가정동 607-3",
      "latitude": 37.5296943,
      "longitude": 126.6653099
    },
    {
      "no": 414,
      "name": "가정온누리약국",
      "address": "제주특별자치도 제주시 외도일동 548-1",
      "latitude": 33.4877061,
      "longitude": 126.4311124
    },
    {
      "no": 415,
      "name": "가족동물병원",
      "address": "전라북도 군산시 수송동 820-6",
      "latitude": 35.9629173999999,
      "longitude": 126.7151919
    },
    {
      "no": 416,
      "name": "가족사랑약국",
      "address": "서울특별시 강북구 미아동 258-134",
      "latitude": 37.6246966,
      "longitude": 127.032079
    },
    {
      "no": 417,
      "name": "가족사랑종로약국",
      "address": "충청북도 증평군 증평읍 신동리 15",
      "latitude": 36.782895,
      "longitude": 127.5803079
    },
    {
      "no": 418,
      "name": "가족약국",
      "address": "충청남도 논산시 화지동 64-1",
      "latitude": 36.2067311,
      "longitude": 127.085674
    },
    {
      "no": 419,
      "name": "가좌동물병원",
      "address": "서울특별시 서대문구 북가좌동 308-1",
      "latitude": 37.5800307,
      "longitude": 126.9111486
    },
    {
      "no": 420,
      "name": "가좌동물병원",
      "address": "경기도 고양시 일산서구 가좌3로 7-1",
      "latitude": 37.6853171,
      "longitude": 126.7202279
    },
    {
      "no": 421,
      "name": "가좌마트약국",
      "address": "인천광역시 서구 가좌동 118",
      "latitude": 37.4976182,
      "longitude": 126.6707307
    },
    {
      "no": 422,
      "name": "가좌진약국",
      "address": "서울특별시 서대문구 남가좌동 102-24",
      "latitude": 37.5687985,
      "longitude": 126.9163729
    },
    {
      "no": 423,
      "name": "가천박물관",
      "address": "인천광역시 연수구 옥련동 567-22",
      "latitude": 37.4183068,
      "longitude": 126.6576724
    },
    {
      "no": 424,
      "name": "가톨릭관동대학교박물관",
      "address": "강원도 강릉시 내곡동 522",
      "latitude": 37.7361331,
      "longitude": 128.8741243
    },
    {
      "no": 425,
      "name": "가평 퓨어향기 독채펜션",
      "address": "경기도 가평군 북면 적목리 166-2",
      "latitude": 37.983053,
      "longitude": 127.433456
    },
    {
      "no": 426,
      "name": "가평가축병원",
      "address": "경기도 가평군 가평읍 대곡리 230-3",
      "latitude": 37.8250416,
      "longitude": 127.5142112
    },
    {
      "no": 427,
      "name": "가평문화예술회관",
      "address": "경기도 가평군 가평읍 대곡리 316",
      "latitude": 37.8249459,
      "longitude": 127.5072685
    },
    {
      "no": 428,
      "name": "가평온누리약국",
      "address": "경기도 가평군 가평읍 읍내리 468-22",
      "latitude": 37.8297339,
      "longitude": 127.5133585
    },
    {
      "no": 429,
      "name": "가평중앙약국",
      "address": "경기도 가평군 가평읍 읍내리 476-7",
      "latitude": 37.8293646,
      "longitude": 127.5136745
    },
    {
      "no": 430,
      "name": "가평축산농협 동물병원",
      "address": "경기도 가평군 가평읍 대곡리 168-4",
      "latitude": 37.824995,
      "longitude": 127.5152613
    },
    {
      "no": 431,
      "name": "가평휴게소 반려견놀이터",
      "address": "경기도 가평군 설악면 미사리 149-4",
      "latitude": 37.7016621,
      "longitude": 127.5465567
    },
    {
      "no": 432,
      "name": "가평힐링타임펜션",
      "address": "경기도 가평군 상면 행현리 375-1",
      "latitude": 37.7624397,
      "longitude": 127.364235
    },
    {
      "no": 433,
      "name": "가학산근린공원",
      "address": "경기도 광명시 가학동 산 7",
      "latitude": 37.4274165,
      "longitude": 126.8658545
    },
    {
      "no": 434,
      "name": "가화쌈지숲공원",
      "address": "충청북도 옥천군 옥천읍 금구리 223",
      "latitude": 36.3056235,
      "longitude": 127.5609312
    },
    {
      "no": 435,
      "name": "가회민화박물관",
      "address": "서울특별시 종로구 가회동 28",
      "latitude": 37.5814789,
      "longitude": 126.9852404
    },
    {
      "no": 436,
      "name": "각리근린공원",
      "address": "충청북도 청주시 청원구 오창읍 각리 639-3",
      "latitude": 36.709142,
      "longitude": 127.4321275
    },
    {
      "no": 437,
      "name": "각화제",
      "address": "광주광역시 북구 각화동",
      "latitude": 35.1830178,
      "longitude": 126.9420292
    },
    {
      "no": 438,
      "name": "간석약국",
      "address": "인천광역시 남동구 간석동 895",
      "latitude": 37.4654087,
      "longitude": 126.6933342
    },
    {
      "no": 439,
      "name": "간석열린약국",
      "address": "인천광역시 남동구 간석동 283-5",
      "latitude": 37.4618934,
      "longitude": 126.7078465
    },
    {
      "no": 440,
      "name": "간성종로약국",
      "address": "강원도 고성군 간성읍 신안리 250-1",
      "latitude": 38.3790936,
      "longitude": 128.472391
    },
    {
      "no": 441,
      "name": "간송박물관",
      "address": "서울특별시 성북구 성북동 81-2",
      "latitude": 37.5945132,
      "longitude": 126.9966038
    },
    {
      "no": 442,
      "name": "간식곳간",
      "address": "경기도 고양시 일산동구 장항동 869",
      "latitude": 37.6547974,
      "longitude": 126.7708416
    },
    {
      "no": 443,
      "name": "간식나무",
      "address": "서울특별시 영등포구 양평동2가 1-1",
      "latitude": 37.5218847,
      "longitude": 126.8846639
    },
    {
      "no": 444,
      "name": "간식멍냥",
      "address": "대구광역시 남구 이천동 451-20",
      "latitude": 35.8525699,
      "longitude": 128.594996
    },
    {
      "no": 445,
      "name": "간식멍냥",
      "address": "경상남도 창원시 마산회원구 내서읍 삼계리 38",
      "latitude": 35.2285466,
      "longitude": 128.5046096
    },
    {
      "no": 446,
      "name": "간식멍는날",
      "address": "경기도 군포시 도마교동 474-1",
      "latitude": 37.3163113,
      "longitude": 126.9224209
    },
    {
      "no": 447,
      "name": "간식뭐멍냥",
      "address": "경기도 시흥시 은행동 605",
      "latitude": 37.4458603,
      "longitude": 126.8020325
    },
    {
      "no": 448,
      "name": "간식세끼",
      "address": "경기도 이천시 중리동 461-6",
      "latitude": 37.2753555,
      "longitude": 127.4466215
    },
    {
      "no": 449,
      "name": "간식을부탁해 본점",
      "address": "전라북도 전주시 완산구 중화산동2가 593",
      "latitude": 35.8189196,
      "longitude": 127.1191398
    },
    {
      "no": 450,
      "name": "간식이모",
      "address": "울산광역시 중구 약사동 413-9",
      "latitude": 35.5793382,
      "longitude": 129.3383642
    },
    {
      "no": 451,
      "name": "간식주까",
      "address": "경기도 부천시 원미동 196-1",
      "latitude": 37.49003,
      "longitude": 126.7877268
    },
    {
      "no": 452,
      "name": "간식콩방",
      "address": "울산광역시 남구 삼산동 1649-7",
      "latitude": 35.5373806,
      "longitude": 129.3499841
    },
    {
      "no": 453,
      "name": "간절곶",
      "address": "울산광역시 울주군 서생면 대송리 28-1",
      "latitude": 35.3588966,
      "longitude": 129.3604333
    },
    {
      "no": 454,
      "name": "갈마봉근린공원",
      "address": "대전광역시 유성구 지족동 837",
      "latitude": 36.3844356,
      "longitude": 127.3180431
    },
    {
      "no": 455,
      "name": "갈마약국",
      "address": "대전광역시 서구 갈마동 261-14",
      "latitude": 36.3537148,
      "longitude": 127.3684511
    },
    {
      "no": 456,
      "name": "갈매365약국",
      "address": "경기도 구리시 갈매동 604-3",
      "latitude": 37.6320635,
      "longitude": 127.1172549
    },
    {
      "no": 457,
      "name": "갈매구릉산자락길",
      "address": "경기도 구리시 갈매동 392-20",
      "latitude": 37.6270585,
      "longitude": 127.1213018
    },
    {
      "no": 458,
      "name": "갈매동물병원",
      "address": "경기도 구리시 갈매동 646",
      "latitude": 37.6308396,
      "longitude": 127.1171975
    },
    {
      "no": 459,
      "name": "갈매메디칼센터약국",
      "address": "경기도 구리시 갈매동 601-2",
      "latitude": 37.6327398,
      "longitude": 127.1176579
    },
    {
      "no": 460,
      "name": "감계동물병원",
      "address": "경상남도 창원시 의창구 북면 감계리 236-5",
      "latitude": 35.2989714,
      "longitude": 128.5871345
    },
    {
      "no": 461,
      "name": "감계미소약국",
      "address": "경상남도 창원시 의창구 북면 감계리 233-2",
      "latitude": 35.2989714,
      "longitude": 128.5871345
    },
    {
      "no": 462,
      "name": "감귤박물관",
      "address": "제주특별자치도 서귀포시 신효동 1200-6",
      "latitude": 33.2712797999999,
      "longitude": 126.6076749
    },
    {
      "no": 463,
      "name": "감나무실공원",
      "address": "충청북도 청주시 흥덕구 가경동 1692",
      "latitude": 36.6178122,
      "longitude": 127.4375923
    },
    {
      "no": 464,
      "name": "감사약국",
      "address": "경기도 파주시 문산읍 문산리 7-5",
      "latitude": 37.858077,
      "longitude": 126.7857589
    },
    {
      "no": 465,
      "name": "감삼시티약국",
      "address": "대구광역시 달서구 두류동 495-6",
      "latitude": 35.8540375,
      "longitude": 128.5485049
    },
    {
      "no": 466,
      "name": "감성공판장",
      "address": "전라남도 담양군 월산면 화방리 378-2",
      "latitude": 35.3352413,
      "longitude": 126.9622604
    },
    {
      "no": 467,
      "name": "감성독",
      "address": "서울특별시 중랑구 면목동 1326-155",
      "latitude": 37.5809063,
      "longitude": 127.0929669
    },
    {
      "no": 468,
      "name": "감성약국",
      "address": "인천광역시 연수구 송도동 311",
      "latitude": 37.415518,
      "longitude": 126.6194208
    },
    {
      "no": 469,
      "name": "감성있개",
      "address": "서울특별시 중랑구 신내동 405-5",
      "latitude": 37.6078176,
      "longitude": 127.0983476
    },
    {
      "no": 470,
      "name": "감악산 출렁다리",
      "address": "경기도 파주시 적성면 설마리 산 21-1",
      "latitude": 37.9395179,
      "longitude": 126.9558533
    },
    {
      "no": 471,
      "name": "감우재전승기념관",
      "address": "충청북도 음성군 음성읍 소여리 897",
      "latitude": 36.9512434,
      "longitude": 127.6468914
    },
    {
      "no": 472,
      "name": "감일튼튼약국",
      "address": "경기도 하남시 감일동 530-4",
      "latitude": 37.5046654,
      "longitude": 127.1556051
    },
    {
      "no": 473,
      "name": "감자동물병원",
      "address": "대구광역시 수성구 매호동 1344-21",
      "latitude": 35.841763,
      "longitude": 128.7047997
    },
    {
      "no": 474,
      "name": "감자밭",
      "address": "강원도 춘천시 신북읍 천전리 99-13",
      "latitude": 37.9296165,
      "longitude": 127.7844957
    },
    {
      "no": 475,
      "name": "감천무지개약국",
      "address": "부산광역시 사하구 감천동 476-4",
      "latitude": 35.0886639,
      "longitude": 129.0052417
    },
    {
      "no": 476,
      "name": "감천문화마을",
      "address": "부산광역시 사하구 감천동 10-2",
      "latitude": 35.0969874,
      "longitude": 129.0108625
    },
    {
      "no": 477,
      "name": "감초당약국",
      "address": "경기도 하남시 신장동 528",
      "latitude": 37.5396002,
      "longitude": 127.2190909
    },
    {
      "no": 478,
      "name": "감초당약국",
      "address": "충청남도 부여군 부여읍 구아리 329-1",
      "latitude": 36.2814579,
      "longitude": 126.9103155
    },
    {
      "no": 479,
      "name": "감초당약국",
      "address": "경상북도 경산시 사동 588-10",
      "latitude": 35.8177256,
      "longitude": 128.7528111
    },
    {
      "no": 480,
      "name": "감초당약국",
      "address": "경상북도 칠곡군 동명면 금암리 231-72",
      "latitude": 35.9821094,
      "longitude": 128.5537728
    },
    {
      "no": 481,
      "name": "감초당약국",
      "address": "경상남도 김해시 부원동 852-21",
      "latitude": 35.2301045,
      "longitude": 128.8824046
    },
    {
      "no": 482,
      "name": "감초당약국",
      "address": "경상남도 사천시 사남면 월성리 261-2",
      "latitude": 35.0612751,
      "longitude": 128.0701753
    },
    {
      "no": 483,
      "name": "감초당약국",
      "address": "광주광역시 남구 봉선동 1119-25",
      "latitude": 35.1320589,
      "longitude": 126.9078556
    },
    {
      "no": 484,
      "name": "감초약국",
      "address": "서울특별시 강서구 화곡동 342-58",
      "latitude": 37.5313142,
      "longitude": 126.8472943
    },
    {
      "no": 485,
      "name": "감초온누리약국",
      "address": "경기도 가평군 설악면 신천리 120-3",
      "latitude": 37.6768854,
      "longitude": 127.4938011
    },
    {
      "no": 486,
      "name": "감춘영가축병원",
      "address": "경상남도 남해군 남해읍 서변리 138-2",
      "latitude": 34.8349514,
      "longitude": 127.8944706
    },
    {
      "no": 487,
      "name": "갑을동물병원",
      "address": "부산광역시 해운대구 재송동 1145-32",
      "latitude": 35.1909509,
      "longitude": 129.1279816
    },
    {
      "no": 488,
      "name": "갑천근린공원",
      "address": "대전광역시 유성구 봉명동 702",
      "latitude": 36.3543203,
      "longitude": 127.3507583
    },
    {
      "no": 489,
      "name": "갓바위미술관",
      "address": "전라남도 목포시 명륜동 18",
      "latitude": 34.790229,
      "longitude": 126.3850063
    },
    {
      "no": 490,
      "name": "강경젓갈전시관",
      "address": "충청남도 논산시 강경읍 황산리 198",
      "latitude": 36.1578658,
      "longitude": 127.0053465
    },
    {
      "no": 491,
      "name": "강남25동물병원",
      "address": "서울특별시 강남구 논현동 90-6",
      "latitude": 37.5155965,
      "longitude": 127.0350162
    },
    {
      "no": 492,
      "name": "강남2층약국",
      "address": "경기도 용인시 기흥구 구갈동 594",
      "latitude": 37.2712459,
      "longitude": 127.1281659
    },
    {
      "no": 493,
      "name": "강남가축동물병원",
      "address": "전라북도 익산시 함열읍 와리 545-117",
      "latitude": 36.0812087,
      "longitude": 126.9570073
    },
    {
      "no": 494,
      "name": "강남강아지",
      "address": "서울특별시 강남구 역삼동 724-45",
      "latitude": 37.4993469,
      "longitude": 127.0428781
    },
    {
      "no": 495,
      "name": "강남구민회관",
      "address": "서울특별시 강남구 대치동 509-2",
      "latitude": 37.4938496,
      "longitude": 127.06415
    },
    {
      "no": 496,
      "name": "강남대약국",
      "address": "경기도 용인시 기흥구 구갈동 581-1",
      "latitude": 37.2711021,
      "longitude": 127.1261433
    },
    {
      "no": 497,
      "name": "강남동물메디컬센터",
      "address": "경기도 광주시 퇴촌면 관음리 525-14",
      "latitude": 37.4617572,
      "longitude": 127.328217
    },
    {
      "no": 498,
      "name": "강남동물병원",
      "address": "서울특별시 강남구 논현동 234-26",
      "latitude": 37.5077796,
      "longitude": 127.0344643
    },
    {
      "no": 499,
      "name": "강남동물병원",
      "address": "경기도 고양시 일산동구 식사동 670-28",
      "latitude": 37.6788452,
      "longitude": 126.8111129
    },
    {
      "no": 500,
      "name": "강남동물병원",
      "address": "경기도 성남시 중원구 금광동 3661",
      "latitude": 37.4460483,
      "longitude": 127.1636699
    },
    {
      "no": 501,
      "name": "강남동물병원",
      "address": "경기도 군포시 산본동 1137-3",
      "latitude": 37.3598716,
      "longitude": 126.9303618
    },
    {
      "no": 502,
      "name": "강남동물병원",
      "address": "경기도 용인시 수지구 동천동 344-2",
      "latitude": 37.3379116,
      "longitude": 127.0928611
    },
    {
      "no": 503,
      "name": "강남동물병원",
      "address": "경기도 평택시 팽성읍 안정리 113-224",
      "latitude": 36.9591601,
      "longitude": 127.043305
    },
    {
      "no": 504,
      "name": "강남동물병원",
      "address": "경기도 화성시 향남읍 행정리 495-1",
      "latitude": 37.1257201,
      "longitude": 126.9208087
    },
    {
      "no": 505,
      "name": "강남동물병원",
      "address": "울산광역시 남구 달동 1328-3",
      "latitude": 35.5426324,
      "longitude": 129.3305776
    },
    {
      "no": 506,
      "name": "강남동물병원",
      "address": "제주특별자치도 제주시 삼도이동 214-20",
      "latitude": 33.5088719,
      "longitude": 126.5234656
    },
    {
      "no": 507,
      "name": "강남동물약국",
      "address": "서울특별시 강남구 역삼동 787-1",
      "latitude": 37.4935662,
      "longitude": 127.0422709
    },
    {
      "no": 508,
      "name": "강남똥개",
      "address": "서울특별시 강남구 대치동 906-15",
      "latitude": 37.5020919,
      "longitude": 127.0536181
    },
    {
      "no": 509,
      "name": "강남리더스약국",
      "address": "서울특별시 강남구 세곡동 581",
      "latitude": 37.4657816,
      "longitude": 127.1011914
    },
    {
      "no": 510,
      "name": "강남메디칼약국",
      "address": "서울특별시 서초구 방배동 851-6",
      "latitude": 37.4892914,
      "longitude": 126.9930737
    },
    {
      "no": 511,
      "name": "강남메디컬동물병원",
      "address": "경상북도 안동시 정하동 251-2",
      "latitude": 36.5517678,
      "longitude": 128.7358953
    },
    {
      "no": 512,
      "name": "강남미약국",
      "address": "서울특별시 강남구 역삼동 825-8",
      "latitude": 37.4965166,
      "longitude": 127.0287049
    },
    {
      "no": 513,
      "name": "강남백세약국",
      "address": "서울특별시 강남구 대치동 1021-2",
      "latitude": 37.4980552,
      "longitude": 127.0595812
    },
    {
      "no": 514,
      "name": "강남보선약국",
      "address": "서울특별시 강남구 대치동 990",
      "latitude": 37.4992034,
      "longitude": 127.0630995
    },
    {
      "no": 515,
      "name": "강남봄약국",
      "address": "서울특별시 강남구 역삼동 833",
      "latitude": 37.4933484,
      "longitude": 127.0320347
    },
    {
      "no": 516,
      "name": "강남새천년온누리약국",
      "address": "서울특별시 강남구 대치동 986-9",
      "latitude": 37.5001569,
      "longitude": 127.063734
    },
    {
      "no": 517,
      "name": "강남샘약국",
      "address": "서울특별시 강남구 역삼동 784-6",
      "latitude": 37.4951214,
      "longitude": 127.0458188
    },
    {
      "no": 518,
      "name": "강남서초 동물병원",
      "address": "서울특별시 서초구 서초동 1648-9",
      "latitude": 37.4902812,
      "longitude": 127.0203709
    },
    {
      "no": 519,
      "name": "강남씨티약국",
      "address": "서울특별시 강남구 역삼동 816-3",
      "latitude": 37.4998173,
      "longitude": 127.0271812
    },
    {
      "no": 520,
      "name": "강남애니동물메디컬센터",
      "address": "경기도 하남시 신장동 315-2",
      "latitude": 37.5471299,
      "longitude": 127.2114471
    },
    {
      "no": 521,
      "name": "강남애니펫샵",
      "address": "경기도 하남시 신장동 315-2",
      "latitude": 37.5471299,
      "longitude": 127.2114471
    },
    {
      "no": 522,
      "name": "강남약국",
      "address": "울산광역시 남구 삼산동 1479-1",
      "latitude": 35.5387907,
      "longitude": 129.3362818
    },
    {
      "no": 523,
      "name": "강남약국",
      "address": "울산광역시 울주군 삼남읍 교동리 298-3",
      "latitude": 35.5595826,
      "longitude": 129.1218175
    },
    {
      "no": 524,
      "name": "강남약국",
      "address": "경상남도 진주시 강남동 239",
      "latitude": 35.1798053,
      "longitude": 128.0903241
    },
    {
      "no": 525,
      "name": "강남역스타약국",
      "address": "서울특별시 강남구 역삼동 825-20",
      "latitude": 37.4977256,
      "longitude": 127.0292972
    },
    {
      "no": 526,
      "name": "강남예치과동물병원",
      "address": "서울특별시 강남구 삼성동 9-5",
      "latitude": 37.5151375,
      "longitude": 127.0426527
    },
    {
      "no": 527,
      "name": "강남온누리약국",
      "address": "서울특별시 강남구 대치동 907",
      "latitude": 37.5011727,
      "longitude": 127.0508237
    },
    {
      "no": 528,
      "name": "강남온누리약국",
      "address": "경상북도 경주시 외동읍 입실리 997-17",
      "latitude": 35.7150126,
      "longitude": 129.3240606
    },
    {
      "no": 529,
      "name": "강남웰약국",
      "address": "서울특별시 강남구 역삼동 815",
      "latitude": 37.5012676,
      "longitude": 127.0264794
    },
    {
      "no": 530,
      "name": "강남종합동물병원",
      "address": "경기도 용인시 기흥구 신갈동 38-5",
      "latitude": 37.2742937,
      "longitude": 127.1054916
    },
    {
      "no": 531,
      "name": "강남종합동물병원",
      "address": "강원도 춘천시 석사동 765-10",
      "latitude": 37.8629448,
      "longitude": 127.7499774
    },
    {
      "no": 532,
      "name": "강남차차약국",
      "address": "서울특별시 강남구 역삼동 635-13",
      "latitude": 37.4998786,
      "longitude": 127.0294539
    },
    {
      "no": 533,
      "name": "강남퍼스트약국",
      "address": "서울특별시 강남구 논현동 1-1",
      "latitude": 37.5160779,
      "longitude": 127.0203464
    },
    {
      "no": 534,
      "name": "강남펫",
      "address": "경상남도 진주시 초전동 1070",
      "latitude": 35.1980439,
      "longitude": 128.1159863
    },
    {
      "no": 535,
      "name": "강남펫스타일",
      "address": "서울특별시 강남구 역삼동 730-2",
      "latitude": 37.4992815,
      "longitude": 127.0435859
    },
    {
      "no": 536,
      "name": "강남푸른약국",
      "address": "강원도 춘천시 온의동 513-7",
      "latitude": 37.8642687,
      "longitude": 127.7205198
    },
    {
      "no": 537,
      "name": "강남프라자약국",
      "address": "서울특별시 강남구 논현동 117-1",
      "latitude": 37.5166171,
      "longitude": 127.0382682
    },
    {
      "no": 538,
      "name": "강남허브약국",
      "address": "서울특별시 강남구 논현동 241-3",
      "latitude": 37.5166861,
      "longitude": 127.0405907
    },
    {
      "no": 539,
      "name": "강남효약국",
      "address": "경기도 용인시 기흥구 구갈동 412-8",
      "latitude": 37.2736356,
      "longitude": 127.1105615
    },
    {
      "no": 540,
      "name": "강내동물병원",
      "address": "충청북도 청주시 흥덕구 강내면 탑연리 173-5",
      "latitude": 36.6232151,
      "longitude": 127.3602373
    },
    {
      "no": 541,
      "name": "강냥이와나드리",
      "address": "경기도 용인시 처인구 포곡읍 둔전리 340",
      "latitude": 37.2756272,
      "longitude": 127.2276759
    },
    {
      "no": 542,
      "name": "강냥이와친구들",
      "address": "경기도 용인시 처인구 포곡읍 삼계리 485-11",
      "latitude": 37.2816215,
      "longitude": 127.2330913
    },
    {
      "no": 543,
      "name": "강동 솔약국",
      "address": "서울특별시 강동구 길동 389-7",
      "latitude": 37.5375304,
      "longitude": 127.1395967
    },
    {
      "no": 544,
      "name": "강동24시 SKY 동물의료센터",
      "address": "서울특별시 강동구 성내동 244-2",
      "latitude": 37.5343701,
      "longitude": 127.1359844
    },
    {
      "no": 545,
      "name": "강동동물병원",
      "address": "서울특별시 강동구 길동 336-4",
      "latitude": 37.5423777,
      "longitude": 127.141933
    },
    {
      "no": 546,
      "name": "강동동물병원",
      "address": "강원도 춘천시 신동면 정족리 377-1",
      "latitude": 37.8315577,
      "longitude": 127.7336122
    },
    {
      "no": 547,
      "name": "강동동물약국",
      "address": "서울특별시 강동구 명일동 47-19",
      "latitude": 37.5530599,
      "longitude": 127.1559358
    },
    {
      "no": 548,
      "name": "강동문화복지회관",
      "address": "경상북도 구미시 구평동 241-3",
      "latitude": 36.0901062,
      "longitude": 128.4539292
    },
    {
      "no": 549,
      "name": "강동물병원",
      "address": "대구광역시 북구 관음동 1383-14",
      "latitude": 35.9388435,
      "longitude": 128.5492664
    },
    {
      "no": 550,
      "name": "강동물병원",
      "address": "경상남도 진주시 하대동 337-3",
      "latitude": 35.1909088,
      "longitude": 128.1217762
    },
    {
      "no": 551,
      "name": "강동보건약국",
      "address": "서울특별시 강동구 성내동 550-4",
      "latitude": 37.5288727,
      "longitude": 127.1245555
    },
    {
      "no": 552,
      "name": "강동새경희 약국",
      "address": "서울특별시 강동구 명일동 48-4",
      "latitude": 37.5527409,
      "longitude": 127.1554628
    },
    {
      "no": 553,
      "name": "강동성실약국",
      "address": "서울특별시 강동구 길동 416-15",
      "latitude": 37.5366946,
      "longitude": 127.1356991
    },
    {
      "no": 554,
      "name": "강동아트센터",
      "address": "서울특별시 강동구 상일동 477",
      "latitude": 37.5510531,
      "longitude": 127.1575617
    },
    {
      "no": 555,
      "name": "강동약국",
      "address": "울산광역시 북구 정자동 175-1",
      "latitude": 35.6145209,
      "longitude": 129.4480073
    },
    {
      "no": 556,
      "name": "강동온누리약국",
      "address": "서울특별시 강동구 명일동 353-1",
      "latitude": 37.5456592,
      "longitude": 127.1432581
    },
    {
      "no": 557,
      "name": "강동포도약국",
      "address": "서울특별시 강동구 천호동 157-3",
      "latitude": 37.5368114,
      "longitude": 127.1347478
    },
    {
      "no": 558,
      "name": "강동한우리약국",
      "address": "서울특별시 강동구 암사동 501-2",
      "latitude": 37.5503799,
      "longitude": 127.1279231
    },
    {
      "no": 559,
      "name": "강동호원얀국",
      "address": "서울특별시 강동구 성내동 548-5",
      "latitude": 37.5276625,
      "longitude": 127.1270356
    },
    {
      "no": 560,
      "name": "강릉굴산사지당간지주",
      "address": "강원도 강릉시 구정면 학산리 1181",
      "latitude": 37.7072781,
      "longitude": 128.8918217
    },
    {
      "no": 561,
      "name": "강릉단오제전수교육관",
      "address": "강원도 강릉시 노암동 722-2",
      "latitude": 37.7482174,
      "longitude": 128.895122
    },
    {
      "no": 562,
      "name": "강릉대관령전망대",
      "address": "강원도 강릉시 성산면 보광리 151",
      "latitude": 37.7574609,
      "longitude": 128.8060636
    },
    {
      "no": 563,
      "name": "강릉동물병원",
      "address": "강원도 강릉시 옥천동 161-1",
      "latitude": 37.7578703,
      "longitude": 128.8994471
    },
    {
      "no": 564,
      "name": "강릉선교장박물관",
      "address": "강원도 강릉시 운정동 431",
      "latitude": 37.7865369,
      "longitude": 128.8851213
    },
    {
      "no": 565,
      "name": "강릉아트센터",
      "address": "강원도 강릉시 교동 408",
      "latitude": 37.7730989999999,
      "longitude": 128.8964454
    },
    {
      "no": 566,
      "name": "강릉애견미용아카데미",
      "address": "강원도 강릉시 교동 1891-3",
      "latitude": 37.7639248,
      "longitude": 128.8749603
    },
    {
      "no": 567,
      "name": "강릉원주대학교 박물관",
      "address": "강원도 강릉시 지변동 123",
      "latitude": 37.77001,
      "longitude": 128.8692002
    },
    {
      "no": 568,
      "name": "강릉중앙약국",
      "address": "강원도 강릉시 옥천동 152-1",
      "latitude": 37.7578502,
      "longitude": 128.897573
    },
    {
      "no": 569,
      "name": "강릉축협동물병원",
      "address": "강원도 강릉시 입암동 448",
      "latitude": 37.753881,
      "longitude": 128.9130059
    },
    {
      "no": 570,
      "name": "강릉커피박물관",
      "address": "강원도 강릉시 왕산면 왕산리 806-5",
      "latitude": 37.6522869,
      "longitude": 128.7846026
    },
    {
      "no": 571,
      "name": "강민약국",
      "address": "경상북도 포항시 남구 오천읍 원리 893-23",
      "latitude": 35.967287,
      "longitude": 129.4024519
    },
    {
      "no": 572,
      "name": "강변그랜드약국",
      "address": "서울특별시 광진구 구의동 631-1",
      "latitude": 37.5373972999999,
      "longitude": 127.0976212
    },
    {
      "no": 573,
      "name": "강변애견미용",
      "address": "경기도 안성시 낙원동 403-1",
      "latitude": 37.0051482,
      "longitude": 127.2761397
    },
    {
      "no": 574,
      "name": "강변약국",
      "address": "전라남도 나주시 남평읍 동사리 363-1",
      "latitude": 35.0405691,
      "longitude": 126.8501845
    },
    {
      "no": 575,
      "name": "강봉윤약국",
      "address": "인천광역시 연수구 연수동 533",
      "latitude": 37.4212472,
      "longitude": 126.691788
    },
    {
      "no": 576,
      "name": "강북 24시 N 동물의료센터",
      "address": "서울특별시 성북구 길음동 1163",
      "latitude": 37.6058394999999,
      "longitude": 127.0243773
    },
    {
      "no": 577,
      "name": "강북동물병원",
      "address": "서울특별시 강북구 번동 309",
      "latitude": 37.6288122,
      "longitude": 127.0398991
    },
    {
      "no": 578,
      "name": "강북동물병원",
      "address": "서울특별시 성북구 종암동 19-1",
      "latitude": 37.5962071,
      "longitude": 127.0351652
    },
    {
      "no": 579,
      "name": "강북동물병원",
      "address": "충청남도 공주시 신관동 642-1",
      "latitude": 36.4723728,
      "longitude": 127.1342992
    },
    {
      "no": 580,
      "name": "강북동물병원",
      "address": "경상북도 경산시 하양읍 동서리 592-1",
      "latitude": 35.9167666,
      "longitude": 128.8210027
    },
    {
      "no": 581,
      "name": "강북동산약국",
      "address": "대구광역시 북구 동천동 951-2",
      "latitude": 35.9439783,
      "longitude": 128.5579168
    },
    {
      "no": 582,
      "name": "강북문화예술회관",
      "address": "서울특별시 강북구 수유동 360-10",
      "latitude": 37.6407905,
      "longitude": 127.0134278
    },
    {
      "no": 583,
      "name": "강북약국",
      "address": "대구광역시 북구 읍내동 1341",
      "latitude": 35.9358908,
      "longitude": 128.5494369
    },
    {
      "no": 584,
      "name": "강북우리동물의료센터",
      "address": "서울특별시 도봉구 창동 731-72",
      "latitude": 37.6568707,
      "longitude": 127.0400347
    },
    {
      "no": 585,
      "name": "강북조은약국",
      "address": "대구광역시 북구 학정동 976-1",
      "latitude": 35.9479097,
      "longitude": 128.5671763
    },
    {
      "no": 586,
      "name": "강빛약국",
      "address": "서울특별시 강동구 강일동 76-11",
      "latitude": 37.5719244,
      "longitude": 127.1735018
    },
    {
      "no": 587,
      "name": "강사모백화점",
      "address": "인천광역시 미추홀구 주안동 1436-17",
      "latitude": 37.4484584,
      "longitude": 126.6756951
    },
    {
      "no": 588,
      "name": "강사모애견백화점",
      "address": "경기도 부천시 원종동 339-9",
      "latitude": 37.5271057,
      "longitude": 126.8110174
    },
    {
      "no": 589,
      "name": "강사모펫",
      "address": "서울특별시 중랑구 중화동 207-6",
      "latitude": 37.5950417,
      "longitude": 127.0794229
    },
    {
      "no": 590,
      "name": "강산동물병원",
      "address": "경기도 여주시 홍문동 231",
      "latitude": 37.2919342,
      "longitude": 127.6343132
    },
    {
      "no": 591,
      "name": "강산동물병원",
      "address": "경기도 안성시 원곡면 반제리 46-8",
      "latitude": 37.0223898,
      "longitude": 127.1732628
    },
    {
      "no": 592,
      "name": "강산약국",
      "address": "경기도 파주시 야당동 1072-1",
      "latitude": 37.7145032,
      "longitude": 126.7600632
    },
    {
      "no": 593,
      "name": "강산약국",
      "address": "충청남도 논산시 반월동 67-4",
      "latitude": 36.2051982,
      "longitude": 127.0845091
    },
    {
      "no": 594,
      "name": "강생이꼬까",
      "address": "경기도 구리시 교문동 759-7",
      "latitude": 37.5934491999999,
      "longitude": 127.1326211
    },
    {
      "no": 595,
      "name": "강생이네",
      "address": "경상남도 밀양시 삼문동 760",
      "latitude": 35.4794469,
      "longitude": 128.7528777
    },
    {
      "no": 596,
      "name": "강서 한강공원",
      "address": "서울특별시 강서구 방화동 47",
      "latitude": 37.5860308,
      "longitude": 126.8169995
    },
    {
      "no": 597,
      "name": "강서구민회관",
      "address": "서울특별시 강서구 내발산동 산 19-1",
      "latitude": 37.5519333,
      "longitude": 126.8416092
    },
    {
      "no": 598,
      "name": "강서동물병원",
      "address": "서울특별시 강서구 화곡동 421-23",
      "latitude": 37.5322189,
      "longitude": 126.8395421
    },
    {
      "no": 599,
      "name": "강서동물병원",
      "address": "충청북도 청주시 흥덕구 비하동 714",
      "latitude": 36.632709,
      "longitude": 127.4249477
    },
    {
      "no": 600,
      "name": "강서보건약국",
      "address": "서울특별시 강서구 마곡동 737",
      "latitude": 37.5673448999999,
      "longitude": 126.8238207
    },
    {
      "no": 601,
      "name": "강서약국",
      "address": "서울특별시 강서구 등촌동 565-6",
      "latitude": 37.5370565,
      "longitude": 126.8632249
    },
    {
      "no": 602,
      "name": "강서종로약국",
      "address": "서울특별시 강서구 내발산동 723-4",
      "latitude": 37.5486805,
      "longitude": 126.8360094
    },
    {
      "no": 603,
      "name": "강서천사약국",
      "address": "서울특별시 강서구 내발산동 644-1",
      "latitude": 37.5581377,
      "longitude": 126.8374574
    },
    {
      "no": 604,
      "name": "강서튼튼약국",
      "address": "서울특별시 강서구 마곡동 798-4",
      "latitude": 37.5590065,
      "longitude": 126.8239281
    },
    {
      "no": 605,
      "name": "강서홈약국",
      "address": "서울특별시 강서구 등촌동 639-11",
      "latitude": 37.5584079,
      "longitude": 126.8550157
    },
    {
      "no": 606,
      "name": "강서YD동물의료센터",
      "address": "서울특별시 강서구 등촌동 658-4",
      "latitude": 37.5569656,
      "longitude": 126.8521759
    },
    {
      "no": 607,
      "name": "강아지 고양이 편의점 경성대점",
      "address": "부산광역시 남구 대연동 86-3",
      "latitude": 35.1385724,
      "longitude": 129.1009874
    },
    {
      "no": 608,
      "name": "강아지 고양이 편의점 미금점",
      "address": "경기도 성남시 분당구 구미동 63",
      "latitude": 37.3468811,
      "longitude": 127.1133622
    },
    {
      "no": 609,
      "name": "강아지 고양이 편의점 백석점",
      "address": "경기도 고양시 일산동구 백석동 1343",
      "latitude": 37.6423036,
      "longitude": 126.7853374
    },
    {
      "no": 610,
      "name": "강아지 고양이 편의점 삼송점",
      "address": "경기도 고양시 덕양구 동산동 369",
      "latitude": 37.6496111,
      "longitude": 126.8964664
    },
    {
      "no": 611,
      "name": "강아지 고양이와함께 원주점",
      "address": "강원도 원주시 반곡동 1140",
      "latitude": 37.3196479,
      "longitude": 127.9712219
    },
    {
      "no": 612,
      "name": "강아지 고양이편의점 계양점",
      "address": "인천광역시 계양구 효성동 567",
      "latitude": 37.5249823,
      "longitude": 126.6982
    },
    {
      "no": 613,
      "name": "강아지 그리다",
      "address": "전라북도 전주시 완산구 평화동1가 569-13",
      "latitude": 35.7957971,
      "longitude": 127.1386219
    },
    {
      "no": 614,
      "name": "강아지 살롱",
      "address": "경상남도 김해시 외동 883",
      "latitude": 35.2310125,
      "longitude": 128.8488505
    },
    {
      "no": 615,
      "name": "강아지 지니",
      "address": "울산광역시 동구 화정동 149-1",
      "latitude": 35.5025023,
      "longitude": 129.4175459
    },
    {
      "no": 616,
      "name": "강아지간식과 아이스크림",
      "address": "경기도 고양시 덕양구 내유동 431-16",
      "latitude": 37.7146436,
      "longitude": 126.8517053
    },
    {
      "no": 617,
      "name": "강아지고양이 전주아중점",
      "address": "전라북도 전주시 덕진구 우아동2가 908-14",
      "latitude": 35.8297085,
      "longitude": 127.1709353
    },
    {
      "no": 618,
      "name": "강아지고양이대통령24 동탄점",
      "address": "경기도 화성시 송동 694",
      "latitude": 37.1713172,
      "longitude": 127.1049823
    },
    {
      "no": 619,
      "name": "강아지고양이편의점 개봉점",
      "address": "서울특별시 구로구 개봉동 403-203",
      "latitude": 37.4871828,
      "longitude": 126.8560896
    },
    {
      "no": 620,
      "name": "강아지고양이편의점 걸포점",
      "address": "경기도 김포시 걸포동 294-38",
      "latitude": 37.6347762,
      "longitude": 126.7080048
    },
    {
      "no": 621,
      "name": "강아지고양이편의점 고척점",
      "address": "서울특별시 구로구 고척동 72-102",
      "latitude": 37.4967805,
      "longitude": 126.8622545
    },
    {
      "no": 622,
      "name": "강아지고양이편의점 남가좌점",
      "address": "서울특별시 서대문구 남가좌동 150-4",
      "latitude": 37.5701395,
      "longitude": 126.9168453
    },
    {
      "no": 623,
      "name": "강아지고양이편의점 답십리점",
      "address": "서울특별시 동대문구 답십리동 467-45",
      "latitude": 37.5724638,
      "longitude": 127.0509738
    },
    {
      "no": 624,
      "name": "강아지고양이편의점 대구범물점",
      "address": "대구광역시 수성구 범물동 1336",
      "latitude": 35.8200387,
      "longitude": 128.6387423
    },
    {
      "no": 625,
      "name": "강아지고양이편의점 대전둔산점",
      "address": "대전광역시 서구 둔산동 1429",
      "latitude": 36.3493158,
      "longitude": 127.3886053
    },
    {
      "no": 626,
      "name": "강아지고양이편의점 동탄점",
      "address": "경기도 화성시 청계동 514",
      "latitude": 37.2013359,
      "longitude": 127.1034648
    },
    {
      "no": 627,
      "name": "강아지고양이편의점 망원점",
      "address": "서울특별시 마포구 망원동 394-87",
      "latitude": 37.5531145,
      "longitude": 126.9060835
    },
    {
      "no": 628,
      "name": "강아지고양이편의점 망원한강점",
      "address": "서울특별시 마포구 망원동 453-44",
      "latitude": 37.5559025,
      "longitude": 126.8970823
    },
    {
      "no": 629,
      "name": "강아지고양이편의점 목동점",
      "address": "서울특별시 양천구 목동 752-10",
      "latitude": 37.5378315,
      "longitude": 126.8725485
    },
    {
      "no": 630,
      "name": "강아지고양이편의점 부산용호점",
      "address": "부산광역시 남구 용호동 541-3",
      "latitude": 35.112767,
      "longitude": 129.1108181
    },
    {
      "no": 631,
      "name": "강아지고양이편의점 분당정자점",
      "address": "경기도 성남시 분당구 정자동 82-2",
      "latitude": 37.3701808,
      "longitude": 127.1100862
    },
    {
      "no": 632,
      "name": "강아지고양이편의점 삼전점",
      "address": "서울특별시 송파구 삼전동 30-13",
      "latitude": 37.5029021,
      "longitude": 127.0888928
    },
    {
      "no": 633,
      "name": "강아지고양이편의점 상계점",
      "address": "서울특별시 노원구 상계동 670-2",
      "latitude": 37.6614571,
      "longitude": 127.0593957
    },
    {
      "no": 634,
      "name": "강아지고양이편의점 석수점",
      "address": "경기도 안양시 만안구 석수동 180-2",
      "latitude": 37.416005,
      "longitude": 126.9128952
    },
    {
      "no": 635,
      "name": "강아지고양이편의점 신정점",
      "address": "서울특별시 양천구 신정동 1326",
      "latitude": 37.5151795,
      "longitude": 126.8557093
    },
    {
      "no": 636,
      "name": "강아지고양이편의점 쌍문점",
      "address": "서울특별시 도봉구 쌍문동 248-2",
      "latitude": 37.6587479,
      "longitude": 127.0280759
    },
    {
      "no": 637,
      "name": "강아지고양이편의점 양주옥정점",
      "address": "경기도 양주시 옥정동 1036-7",
      "latitude": 37.8212385,
      "longitude": 127.0974946
    },
    {
      "no": 638,
      "name": "강아지고양이편의점 연남점",
      "address": "서울특별시 마포구 연남동 227-8",
      "latitude": 37.5621508,
      "longitude": 126.9267039
    },
    {
      "no": 639,
      "name": "강아지고양이편의점 울산남구점",
      "address": "울산광역시 남구 야음동 695-79",
      "latitude": 35.52724,
      "longitude": 129.3231086
    },
    {
      "no": 640,
      "name": "강아지고양이편의점 울산점",
      "address": "울산광역시 동구 서부동 181-39",
      "latitude": 35.524545,
      "longitude": 129.4324927
    },
    {
      "no": 641,
      "name": "강아지고양이편의점 울산중구점",
      "address": "울산광역시 중구 남외동 513-4",
      "latitude": 35.5671999,
      "longitude": 129.3504535
    },
    {
      "no": 642,
      "name": "강아지고양이편의점 인천간석점",
      "address": "인천광역시 남동구 간석동 284-5",
      "latitude": 37.4612904,
      "longitude": 126.7080842
    },
    {
      "no": 643,
      "name": "강아지고양이편의점 인천만수점",
      "address": "인천광역시 남동구 만수동 5-302",
      "latitude": 37.4622357,
      "longitude": 126.7358109
    },
    {
      "no": 644,
      "name": "강아지고양이편의점 인천석남점",
      "address": "인천광역시 서구 석남동 503-2",
      "latitude": 37.5068604,
      "longitude": 126.6740512
    },
    {
      "no": 645,
      "name": "강아지고양이편의점 인천점",
      "address": "인천광역시 남동구 구월동 1149-3",
      "latitude": 37.4485113,
      "longitude": 126.707154
    },
    {
      "no": 646,
      "name": "강아지고양이편의점 일산가로수길점",
      "address": "경기도 고양시 일산서구 대화동 1050-185",
      "latitude": 37.6660233,
      "longitude": 126.7564688
    },
    {
      "no": 647,
      "name": "강아지고양이편의점 중곡점",
      "address": "서울특별시 광진구 중곡동 117-23",
      "latitude": 37.5548977,
      "longitude": 127.0877213
    },
    {
      "no": 648,
      "name": "강아지고양이편의점 중랑천점",
      "address": "서울특별시 광진구 중곡동 241-24",
      "latitude": 37.5631081,
      "longitude": 127.0804414
    },
    {
      "no": 649,
      "name": "강아지고양이편의점 평촌점",
      "address": "경기도 안양시 동안구 평촌동 909-5",
      "latitude": 37.3845626,
      "longitude": 126.9638908
    },
    {
      "no": 650,
      "name": "강아지고양이편의점 평택점",
      "address": "경기도 평택시 용이동 693-7",
      "latitude": 36.9921655,
      "longitude": 127.124626
    },
    {
      "no": 651,
      "name": "강아지고양이편의점 포항점",
      "address": "경상북도 포항시 북구 학잠동 62-1",
      "latitude": 36.0258688,
      "longitude": 129.3514529
    },
    {
      "no": 652,
      "name": "강아지고양이편의점 하남미사점",
      "address": "경기도 하남시 망월동 1067",
      "latitude": 37.560154,
      "longitude": 127.1865753
    },
    {
      "no": 653,
      "name": "강아지고양이편의점 한성대점",
      "address": "서울특별시 성북구 동소문동2가 144",
      "latitude": 37.5880963,
      "longitude": 127.0082832
    },
    {
      "no": 654,
      "name": "강아지고양이편의점 혁신점",
      "address": "경상남도 진주시 충무공동 83-1",
      "latitude": 35.1699814,
      "longitude": 128.1319203
    },
    {
      "no": 655,
      "name": "강아지고양이편의점 호매실",
      "address": "경기도 수원시 권선구 금곡동 1135-2",
      "latitude": 37.2713552,
      "longitude": 126.9571436
    },
    {
      "no": 656,
      "name": "강아지고양이편의점 회기점",
      "address": "서울특별시 동대문구 휘경동 328-1",
      "latitude": 37.5897697,
      "longitude": 127.0558738
    },
    {
      "no": 657,
      "name": "강아지공간",
      "address": "경기도 용인시 수지구 죽전동 876-6",
      "latitude": 37.3328363,
      "longitude": 127.1086819
    },
    {
      "no": 658,
      "name": "강아지공작소",
      "address": "대전광역시 유성구 구암동 590-15",
      "latitude": 36.3545081,
      "longitude": 127.3322633
    },
    {
      "no": 659,
      "name": "강아지군대가는날",
      "address": "서울특별시 구로구 개봉동 118-6",
      "latitude": 37.5040781,
      "longitude": 126.8466879
    },
    {
      "no": 660,
      "name": "강아지꼬순내",
      "address": "경기도 평택시 신장동 53-7",
      "latitude": 37.0895237,
      "longitude": 127.0525164
    },
    {
      "no": 661,
      "name": "강아지꿈",
      "address": "강원도 원주시 학성동 1061-8",
      "latitude": 37.3518898,
      "longitude": 127.9404603
    },
    {
      "no": 662,
      "name": "강아지나라",
      "address": "인천광역시 부평구 부평동 534-15",
      "latitude": 37.4910698,
      "longitude": 126.7212896
    },
    {
      "no": 663,
      "name": "강아지나라",
      "address": "울산광역시 울주군 온산읍 덕신리 563-2",
      "latitude": 35.4332087,
      "longitude": 129.3082987
    },
    {
      "no": 664,
      "name": "강아지나라",
      "address": "전라북도 김제시 요촌동 514-16",
      "latitude": 35.7988611,
      "longitude": 126.8844994
    },
    {
      "no": 665,
      "name": "강아지나라동물병원",
      "address": "경기도 남양주시 진접읍 장현리 351-18",
      "latitude": 37.7196244,
      "longitude": 127.184206
    },
    {
      "no": 666,
      "name": "강아지놀이터",
      "address": "서울특별시 광진구 구의동 218-1",
      "latitude": 37.5393461,
      "longitude": 127.0931904
    },
    {
      "no": 667,
      "name": "강아지당",
      "address": "부산광역시 동래구 명장동 489-30",
      "latitude": 35.2094317,
      "longitude": 129.1046564
    },
    {
      "no": 668,
      "name": "강아지대통령",
      "address": "서울특별시 강남구 삼성동 145-9",
      "latitude": 37.5123622,
      "longitude": 127.0541768
    },
    {
      "no": 669,
      "name": "강아지대학로",
      "address": "서울특별시 종로구 동숭동 1-139",
      "latitude": 37.5801209,
      "longitude": 127.0037046
    },
    {
      "no": 670,
      "name": "강아지똥",
      "address": "경기도 안양시 만안구 안양동 707-118",
      "latitude": 37.3937031,
      "longitude": 126.9206683
    },
    {
      "no": 671,
      "name": "강아지똥",
      "address": "경상남도 김해시 내동 1143-3",
      "latitude": 35.2361756,
      "longitude": 128.867312
    },
    {
      "no": 672,
      "name": "강아지랑 애견용품할인매장",
      "address": "서울특별시 구로구 가리봉동 135-68",
      "latitude": 37.4793795,
      "longitude": 126.8916846
    },
    {
      "no": 673,
      "name": "강아지랑고양이",
      "address": "강원도 속초시 금호동 625-34",
      "latitude": 38.2059579,
      "longitude": 128.5848234
    },
    {
      "no": 674,
      "name": "강아지를 부탁해",
      "address": "대구광역시 중구 봉산동 37-4",
      "latitude": 35.8654204,
      "longitude": 128.5957733
    },
    {
      "no": 675,
      "name": "강아지마을",
      "address": "강원도 태백시 황지동 51-3",
      "latitude": 37.1701014,
      "longitude": 128.991948
    },
    {
      "no": 676,
      "name": "강아지마을",
      "address": "충청남도 천안시 서북구 쌍용동 1949",
      "latitude": 36.8030082999999,
      "longitude": 127.119563
    },
    {
      "no": 677,
      "name": "강아지마켓",
      "address": "경상남도 창원시 의창구 팔용동 125",
      "latitude": 35.2582788,
      "longitude": 128.6132457
    },
    {
      "no": 678,
      "name": "강아지목욕탕",
      "address": "경기도 부천시 중동 1143",
      "latitude": 37.5018393,
      "longitude": 126.7722381
    },
    {
      "no": 679,
      "name": "강아지미용실",
      "address": "경기도 광주시 초월읍 대쌍령리 93-13",
      "latitude": 37.3872633,
      "longitude": 127.2948727
    },
    {
      "no": 680,
      "name": "강아지미용실",
      "address": "세종특별자치시 조치원읍 신흥리 63-4",
      "latitude": 36.5956056,
      "longitude": 127.2921279
    },
    {
      "no": 681,
      "name": "강아지미용실",
      "address": "경상남도 창녕군 영산면 성내리 523",
      "latitude": 35.4649394,
      "longitude": 128.5294599
    },
    {
      "no": 682,
      "name": "강아지미용실",
      "address": "경상남도 김해시 외동 1212-3",
      "latitude": 35.2333571,
      "longitude": 128.8557176
    },
    {
      "no": 683,
      "name": "강아지미용실",
      "address": "제주특별자치도 서귀포시 서귀동 195-2",
      "latitude": 33.2476512,
      "longitude": 126.5677971
    },
    {
      "no": 684,
      "name": "강아지미용실502",
      "address": "서울특별시 중랑구 망우동 408-2",
      "latitude": 37.5941036,
      "longitude": 127.1010959
    },
    {
      "no": 685,
      "name": "강아지미용실왕왕",
      "address": "서울특별시 마포구 염리동 27-110",
      "latitude": 37.5489116,
      "longitude": 126.9492886
    },
    {
      "no": 686,
      "name": "강아지분양 미니몽 은평점",
      "address": "서울특별시 은평구 대조동 188-2",
      "latitude": 37.6156584,
      "longitude": 126.9244505
    },
    {
      "no": 687,
      "name": "강아지빵",
      "address": "울산광역시 남구 달동 1366-10",
      "latitude": 35.5396655,
      "longitude": 129.3337613
    },
    {
      "no": 688,
      "name": "강아지사랑",
      "address": "대전광역시 서구 가수원로 106",
      "latitude": 36.3040257,
      "longitude": 127.3508373
    },
    {
      "no": 689,
      "name": "강아지산책",
      "address": "충청남도 계룡시 엄사면 엄사리 191-7",
      "latitude": 36.2894936,
      "longitude": 127.2397429
    },
    {
      "no": 690,
      "name": "강아지세상",
      "address": "서울특별시 도봉구 쌍문동 256",
      "latitude": 37.6573677,
      "longitude": 127.0282385
    },
    {
      "no": 691,
      "name": "강아지세상고양이세상",
      "address": "전라남도 나주시 빛가람동 756-1",
      "latitude": 35.0133089,
      "longitude": 126.7899387
    },
    {
      "no": 692,
      "name": "강아지숲 박물관",
      "address": "강원도 춘천시 남산면 광판리 1193",
      "latitude": 37.7336552,
      "longitude": 127.6627629
    },
    {
      "no": 693,
      "name": "강아지숲 반려견 테마파크",
      "address": "강원도 춘천시 남산면 광판리 1193",
      "latitude": 37.7336552,
      "longitude": 127.6627629
    },
    {
      "no": 694,
      "name": "강아지스푼",
      "address": "경기도 파주시 문산읍 이천리 442-19",
      "latitude": 37.8633347,
      "longitude": 126.825754
    },
    {
      "no": 695,
      "name": "강아지식탁 낙성대점",
      "address": "서울특별시 관악구 봉천동 1637-2",
      "latitude": 37.4753191,
      "longitude": 126.9658439
    },
    {
      "no": 696,
      "name": "강아지아이돌",
      "address": "서울특별시 강남구 대치동 936",
      "latitude": 37.4975233,
      "longitude": 127.0526743
    },
    {
      "no": 697,
      "name": "강아지앤고양이",
      "address": "서울특별시 강서구 내발산동 670-51",
      "latitude": 37.5541251,
      "longitude": 126.8377656
    },
    {
      "no": 698,
      "name": "강아지야",
      "address": "경기도 남양주시 오남읍 오남리 413-4",
      "latitude": 37.6792551,
      "longitude": 127.2106965
    },
    {
      "no": 699,
      "name": "강아지와고양이",
      "address": "경상북도 경산시 압량읍 부적리 480",
      "latitude": 35.8413253,
      "longitude": 128.7581173
    },
    {
      "no": 700,
      "name": "강아지와고양이 아울렛 포천점",
      "address": "경기도 포천시 내촌면 음현리 525-1",
      "latitude": 37.7627141,
      "longitude": 127.2246276
    },
    {
      "no": 701,
      "name": "강아지와고양이 애견용품할인점",
      "address": "강원도 삼척시 당저동 54-2",
      "latitude": 37.4472342,
      "longitude": 129.1665417
    },
    {
      "no": 702,
      "name": "강아지와고양이 태백점",
      "address": "강원도 태백시 황지동 45-13",
      "latitude": 37.1708964,
      "longitude": 128.9919587
    },
    {
      "no": 703,
      "name": "강아지와고양이나라 동물병원",
      "address": "인천광역시 남동구 논현동 605-11",
      "latitude": 37.4045104,
      "longitude": 126.725707
    },
    {
      "no": 704,
      "name": "강아지와고양이나라 불광점",
      "address": "서울특별시 은평구 불광동 286-19",
      "latitude": 37.6152344,
      "longitude": 126.925974
    },
    {
      "no": 705,
      "name": "강아지와고양이아울렛 거창점",
      "address": "경상남도 거창군 거창읍 대평리 1005-62",
      "latitude": 35.6872808,
      "longitude": 127.9247272
    },
    {
      "no": 706,
      "name": "강아지와고양이아울렛 석전점",
      "address": "경상남도 창원시 마산회원구 석전동 260-11",
      "latitude": 35.2269137,
      "longitude": 128.5748487
    },
    {
      "no": 707,
      "name": "강아지와산책",
      "address": "경기도 시흥시 정왕동 1873-2",
      "latitude": 37.3572762,
      "longitude": 126.7322791
    },
    {
      "no": 708,
      "name": "강아지와산책",
      "address": "울산광역시 중구 태화동 942-21",
      "latitude": 35.5549773,
      "longitude": 129.2769253
    },
    {
      "no": 709,
      "name": "강아지왈츠",
      "address": "경기도 용인시 기흥구 언남동 315",
      "latitude": 37.2982907,
      "longitude": 127.1200101
    },
    {
      "no": 710,
      "name": "강아지왈츠",
      "address": "인천광역시 연수구 연수동 537",
      "latitude": 37.4242076,
      "longitude": 126.6720179
    },
    {
      "no": 711,
      "name": "강아지왈츠 카페",
      "address": "대전광역시 서구 둔산동 1219",
      "latitude": 36.348721,
      "longitude": 127.3821862
    },
    {
      "no": 712,
      "name": "강아지의하루",
      "address": "부산광역시 해운대구 재송동 1200",
      "latitude": 35.1782124,
      "longitude": 129.1220474
    },
    {
      "no": 713,
      "name": "강아지이발소",
      "address": "경상남도 김해시 외동 1254-3",
      "latitude": 35.2326532,
      "longitude": 128.8659549
    },
    {
      "no": 714,
      "name": "강아지이발소홍s",
      "address": "울산광역시 중구 남외동 1001-11",
      "latitude": 35.5645022,
      "longitude": 129.3437362
    },
    {
      "no": 715,
      "name": "강아지정류장",
      "address": "서울특별시 강서구 염창동 250-8",
      "latitude": 37.5499364,
      "longitude": 126.8748441
    },
    {
      "no": 716,
      "name": "강아지집",
      "address": "서울특별시 강남구 삼성동 25-32",
      "latitude": 37.5143115,
      "longitude": 127.0494309
    },
    {
      "no": 717,
      "name": "강아지집",
      "address": "강원도 원주시 일산동 264-10",
      "latitude": 37.3488882,
      "longitude": 127.941121
    },
    {
      "no": 718,
      "name": "강아지천국",
      "address": "대구광역시 북구 읍내동 1341",
      "latitude": 35.9358908,
      "longitude": 128.5494369
    },
    {
      "no": 719,
      "name": "강아지캠퍼스",
      "address": "경기도 화성시 장안면 수촌리 13-24",
      "latitude": 37.0973605,
      "longitude": 126.8695622
    },
    {
      "no": 720,
      "name": "강아지클럽",
      "address": "충청북도 충주시 동량면 대전리 1664-7",
      "latitude": 37.0418613999999,
      "longitude": 127.9278013
    },
    {
      "no": 721,
      "name": "강아지트",
      "address": "경상북도 경산시 옥곡동 812-9",
      "latitude": 35.8165754,
      "longitude": 128.7324306
    },
    {
      "no": 722,
      "name": "강아지풀",
      "address": "경기도 수원시 영통구 매탄동 1352",
      "latitude": 37.2618194,
      "longitude": 127.04141
    },
    {
      "no": 723,
      "name": "강아지풀애견",
      "address": "대전광역시 유성구 봉명동 464-22",
      "latitude": 36.352727,
      "longitude": 127.3369596
    },
    {
      "no": 724,
      "name": "강아지풍경",
      "address": "대전광역시 서구 탄방동 635",
      "latitude": 36.3442684,
      "longitude": 127.3816651
    },
    {
      "no": 725,
      "name": "강애동물병원",
      "address": "경상남도 창원시 성산구 안민동 72",
      "latitude": 35.1865858,
      "longitude": 128.6917697
    },
    {
      "no": 726,
      "name": "강앤정 동물병원",
      "address": "서울특별시 서대문구 남가좌동 385",
      "latitude": 37.5722576,
      "longitude": 126.9178374
    },
    {
      "no": 727,
      "name": "강약국",
      "address": "서울특별시 동작구 흑석동 97-2",
      "latitude": 37.5073375,
      "longitude": 126.9623126
    },
    {
      "no": 728,
      "name": "강약국",
      "address": "경기도 수원시 장안구 율전동 155-5",
      "latitude": 37.302921,
      "longitude": 126.9685718
    },
    {
      "no": 729,
      "name": "강약국",
      "address": "세종특별자치시 금남면 용포리 91-11",
      "latitude": 36.4634551,
      "longitude": 127.2805112
    },
    {
      "no": 730,
      "name": "강약국",
      "address": "부산광역시 금정구 부곡동 890-13",
      "latitude": 35.2177659,
      "longitude": 129.085975
    },
    {
      "no": 731,
      "name": "강약국",
      "address": "부산광역시 부산진구 부전동 486-27",
      "latitude": 35.1579587,
      "longitude": 129.0575474
    },
    {
      "no": 732,
      "name": "강약국",
      "address": "부산광역시 연제구 연산동 635-7",
      "latitude": 35.185511,
      "longitude": 129.0860101
    },
    {
      "no": 733,
      "name": "강약국",
      "address": "경상남도 밀양시 삼랑진읍 송지리 360-77",
      "latitude": 35.3963504,
      "longitude": 128.837503
    },
    {
      "no": 734,
      "name": "강영석동물병원",
      "address": "충청남도 홍성군 홍성읍 오관리 297-29",
      "latitude": 36.6026249,
      "longitude": 126.6668814
    },
    {
      "no": 735,
      "name": "강원경찰박물관",
      "address": "강원도 춘천시 신북읍 율문리 315-3",
      "latitude": 37.9255785,
      "longitude": 127.7503089
    },
    {
      "no": 736,
      "name": "강원대학교 부설 야생동물구조센터",
      "address": "강원도 춘천시 효자동 192-1",
      "latitude": 37.8689546,
      "longitude": 127.7450121
    },
    {
      "no": 737,
      "name": "강원대학교 부속 동물병원",
      "address": "강원도 춘천시 효자동 192-1",
      "latitude": 37.8689546,
      "longitude": 127.7450121
    },
    {
      "no": 738,
      "name": "강원대학교 중앙박물관",
      "address": "강원도 춘천시 효자동 192-1",
      "latitude": 37.8689546,
      "longitude": 127.7450121
    },
    {
      "no": 739,
      "name": "강원도 디엠제트박물관",
      "address": "강원도 고성군 현내면 송현리 212",
      "latitude": 38.5765533,
      "longitude": 128.382708
    },
    {
      "no": 740,
      "name": "강원도산림박물관",
      "address": "강원도 춘천시 사농동 218-5",
      "latitude": 37.9233401,
      "longitude": 127.725416
    },
    {
      "no": 741,
      "name": "강원도탄광문화촌",
      "address": "강원도 영월군 북면 마차리 786-4",
      "latitude": 37.2629291,
      "longitude": 128.4670772
    },
    {
      "no": 742,
      "name": "강원동물병원",
      "address": "강원도 홍천군 홍천읍 연봉리 175-23",
      "latitude": 37.6856189,
      "longitude": 127.8783337
    },
    {
      "no": 743,
      "name": "강원동물병원",
      "address": "강원도 원주시 중앙동 43-2",
      "latitude": 37.3515301,
      "longitude": 127.9501171
    },
    {
      "no": 744,
      "name": "강원랜드 뿌리관",
      "address": "강원도 정선군 사북읍 사북리 381-5",
      "latitude": 37.2245205,
      "longitude": 128.8157021
    },
    {
      "no": 745,
      "name": "강원양돈축산업협동조합동물병원",
      "address": "강원도 강릉시 교동 1888-3",
      "latitude": 37.7633345,
      "longitude": 128.8772793
    },
    {
      "no": 746,
      "name": "강원온누리약국",
      "address": "강원도 춘천시 조양동 48-10",
      "latitude": 37.8791319,
      "longitude": 127.7292328
    },
    {
      "no": 747,
      "name": "강원프라자약국",
      "address": "강원도 양양군 강현면 물치리 24-10",
      "latitude": 38.1562623,
      "longitude": 128.6087516
    },
    {
      "no": 748,
      "name": "강이네하우스",
      "address": "강원도 양양군 서면 상평리 437",
      "latitude": 38.0669299,
      "longitude": 128.5833517
    },
    {
      "no": 749,
      "name": "강이동물병원",
      "address": "충청남도 예산군 광시면 광시리 657-2",
      "latitude": 36.5514792,
      "longitude": 126.7759663
    },
    {
      "no": 750,
      "name": "강일명문약국",
      "address": "서울특별시 강동구 강일동 76-2",
      "latitude": 37.571871,
      "longitude": 127.174024
    },
    {
      "no": 751,
      "name": "강주해바라기마을",
      "address": "경상남도 함안군 법수면 강주리 486-3",
      "latitude": 35.3212717,
      "longitude": 128.3331381
    },
    {
      "no": 752,
      "name": "강쥐나라애견",
      "address": "경상남도 고성군 고성읍 동외리 231-22",
      "latitude": 34.9747047,
      "longitude": 128.3275145
    },
    {
      "no": 753,
      "name": "강진동물약품병원",
      "address": "전라남도 강진군 강진읍 동성리 33-1",
      "latitude": 34.640732,
      "longitude": 126.7787002
    },
    {
      "no": 754,
      "name": "강진미술관",
      "address": "전라남도 강진군 강진읍 동성리 434",
      "latitude": 34.6443398,
      "longitude": 126.7688607
    },
    {
      "no": 755,
      "name": "강진아트홀",
      "address": "전라남도 강진군 강진읍 남성리 23-2",
      "latitude": 34.6381096,
      "longitude": 126.7704036
    },
    {
      "no": 756,
      "name": "강진완도축협동물병원",
      "address": "전라남도 강진군 군동면 호계리 982",
      "latitude": 34.6376259,
      "longitude": 126.7823433
    },
    {
      "no": 757,
      "name": "강천섬유원지",
      "address": "경기도 여주시 강천면 강천리 645",
      "latitude": 37.2321861,
      "longitude": 127.7097318
    },
    {
      "no": 758,
      "name": "강촌꿈에그린",
      "address": "강원도 춘천시 남산면 창촌리 333-4",
      "latitude": 37.7875934,
      "longitude": 127.6405916
    },
    {
      "no": 759,
      "name": "강촌레일파크",
      "address": "강원도 춘천시 남산면 서천리 226-6",
      "latitude": 37.8428138,
      "longitude": 127.5506091
    },
    {
      "no": 760,
      "name": "강하약국",
      "address": "경기도 양평군 강하면 운심리 243-1",
      "latitude": 37.4933731,
      "longitude": 127.4007324
    },
    {
      "no": 761,
      "name": "강한 우리동물병원",
      "address": "충청남도 당진시 합덕읍 운산리 268-95",
      "latitude": 36.8074602,
      "longitude": 126.7722261
    },
    {
      "no": 762,
      "name": "강해철 동물병원",
      "address": "경상북도 문경시 모전동 883-6",
      "latitude": 36.5854168,
      "longitude": 128.1855424
    },
    {
      "no": 763,
      "name": "강현약국",
      "address": "강원도 양양군 강현면 물치리 24-6",
      "latitude": 38.1564617,
      "longitude": 128.6091948
    },
    {
      "no": 764,
      "name": "강화 고벵이 오션뷰 수영장 애견동반 펜션",
      "address": "인천광역시 강화군 화도면 장화리 285-7",
      "latitude": 37.6276027,
      "longitude": 126.380217
    },
    {
      "no": 765,
      "name": "강화 로만티카애견리조트",
      "address": "인천광역시 강화군 화도면 흥왕리 917",
      "latitude": 37.6046475,
      "longitude": 126.4122408
    },
    {
      "no": 766,
      "name": "강화 로맨틱큐브펜션",
      "address": "인천광역시 강화군 길상면 선두리 965-21",
      "latitude": 37.6032957,
      "longitude": 126.4918645
    },
    {
      "no": 767,
      "name": "강화 마니산스토리",
      "address": "인천광역시 강화군 화도면 여차리 645-1",
      "latitude": 37.6100214999999,
      "longitude": 126.3965809
    },
    {
      "no": 768,
      "name": "강화 아우라 독채펜션",
      "address": "인천광역시 강화군 화도면 여차리 415",
      "latitude": 37.6061999,
      "longitude": 126.4017441
    },
    {
      "no": 769,
      "name": "강화 어나더153 애견펜션",
      "address": "인천광역시 강화군 화도면 동막리 211-13",
      "latitude": 37.5950803,
      "longitude": 126.4383661
    },
    {
      "no": 770,
      "name": "강화 제임스펜션",
      "address": "인천광역시 강화군 내가면 고천리 830-5",
      "latitude": 37.7178558,
      "longitude": 126.3843342
    },
    {
      "no": 771,
      "name": "강화 터 애견펜션",
      "address": "인천광역시 강화군 화도면 여차리 933",
      "latitude": 37.6114843999999,
      "longitude": 126.3848058
    },
    {
      "no": 772,
      "name": "강화 팽나무 펜션",
      "address": "인천광역시 강화군 화도면 장화리 800",
      "latitude": 37.6179713,
      "longitude": 126.388483
    },
    {
      "no": 773,
      "name": "강화 해마루 애견동반 펜션",
      "address": "인천광역시 강화군 화도면 여차리 910",
      "latitude": 37.6094383,
      "longitude": 126.3873909
    },
    {
      "no": 774,
      "name": "강화 향기정원 애견동반펜션",
      "address": "인천광역시 강화군 화도면 여차리 473",
      "latitude": 37.6076139,
      "longitude": 126.4010436
    },
    {
      "no": 775,
      "name": "강화도바다네스파펜션",
      "address": "인천광역시 강화군 길상면 선두리 890-15",
      "latitude": 37.6071207,
      "longitude": 126.4803953
    },
    {
      "no": 776,
      "name": "강화돌담캠핑 글램핑",
      "address": "인천광역시 강화군 삼산면 석모리 111-23",
      "latitude": 37.7012177999999,
      "longitude": 126.3282868
    },
    {
      "no": 777,
      "name": "강화문예회관",
      "address": "인천광역시 강화군 강화읍 국화리 239",
      "latitude": 37.7460252,
      "longitude": 126.4738958
    },
    {
      "no": 778,
      "name": "강화역사박물관",
      "address": "인천광역시 강화군 하점면 부근리 350-4",
      "latitude": 37.7648185,
      "longitude": 126.4351211
    },
    {
      "no": 779,
      "name": "강화자연사박물관",
      "address": "인천광역시 강화군 하점면 부근리 814",
      "latitude": 37.7648185,
      "longitude": 126.4351211
    },
    {
      "no": 780,
      "name": "강화전쟁박물관",
      "address": "인천광역시 강화군 강화읍 갑곳리 1040",
      "latitude": 37.7346171,
      "longitude": 126.5162771
    },
    {
      "no": 781,
      "name": "강화종로약국",
      "address": "인천광역시 강화군 강화읍 신문리 5-6",
      "latitude": 37.74585,
      "longitude": 126.4867499
    },
    {
      "no": 782,
      "name": "같은마음",
      "address": "인천광역시 중구 운서동 3091-13",
      "latitude": 37.4695092,
      "longitude": 126.4507804
    },
    {
      "no": 783,
      "name": "개가사는그집",
      "address": "경기도 파주시 목동동 939-4",
      "latitude": 37.7277694,
      "longitude": 126.734377
    },
    {
      "no": 784,
      "name": "개가사는그집 펜션",
      "address": "경기도 가평군 가평읍 복장리 253-4",
      "latitude": 37.7391662,
      "longitude": 127.5047035
    },
    {
      "no": 785,
      "name": "개간식연구소",
      "address": "충청남도 당진시 읍내동 1621",
      "latitude": 36.899989,
      "longitude": 126.6304056
    },
    {
      "no": 786,
      "name": "개간식집",
      "address": "서울특별시 중랑구 묵동 240-1",
      "latitude": 37.6117472,
      "longitude": 127.0755924
    },
    {
      "no": 787,
      "name": "개간지 애견카페",
      "address": "경기도 안산시 단원구 선부동 1070-18",
      "latitude": 37.3366404,
      "longitude": 126.8093892
    },
    {
      "no": 788,
      "name": "개고몰",
      "address": "인천광역시 서구 청라동 104-71",
      "latitude": 37.5202138,
      "longitude": 126.6244797
    },
    {
      "no": 789,
      "name": "개과천선",
      "address": "서울특별시 노원구 상계동 320-4",
      "latitude": 37.6548957,
      "longitude": 127.0695993
    },
    {
      "no": 790,
      "name": "개과천선",
      "address": "서울특별시 양천구 신월동 105-4",
      "latitude": 37.5344346,
      "longitude": 126.8354694
    },
    {
      "no": 791,
      "name": "개과천선",
      "address": "인천광역시 부평구 청천동 426-1",
      "latitude": 37.5217707,
      "longitude": 126.7212133
    },
    {
      "no": 792,
      "name": "개구쟁이",
      "address": "경상북도 포항시 남구 오천읍 원리 932-5",
      "latitude": 35.9676901,
      "longitude": 129.4043365
    },
    {
      "no": 793,
      "name": "개군약국",
      "address": "경기도 양평군 개군면 하자포리 220-8",
      "latitude": 37.4261009,
      "longitude": 127.5376905
    },
    {
      "no": 794,
      "name": "개굿즈",
      "address": "인천광역시 서구 청라동 152-1",
      "latitude": 37.5338512999999,
      "longitude": 126.6369345
    },
    {
      "no": 795,
      "name": "개금금성당약국",
      "address": "부산광역시 부산진구 개금동 171-26",
      "latitude": 35.1511136,
      "longitude": 129.0235311
    },
    {
      "no": 796,
      "name": "개금동물병원",
      "address": "부산광역시 사상구 주례동 23-2",
      "latitude": 35.1516126,
      "longitude": 129.0127982
    },
    {
      "no": 797,
      "name": "개금현대약국",
      "address": "부산광역시 부산진구 개금동 527-197",
      "latitude": 35.1483586,
      "longitude": 129.0197687
    },
    {
      "no": 798,
      "name": "개꿀이발소",
      "address": "충청남도 천안시 동남구 봉명동 39-17",
      "latitude": 36.8044839,
      "longitude": 127.139595
    },
    {
      "no": 799,
      "name": "개꿈꾸는고양이",
      "address": "경기도 화성시 봉담읍 와우리 26-6",
      "latitude": 37.2148017,
      "longitude": 126.9731945
    },
    {
      "no": 800,
      "name": "개꿈꾸는고양이 당진점",
      "address": "충청남도 당진시 읍내동 458",
      "latitude": 36.8982494,
      "longitude": 126.6287809
    },
    {
      "no": 801,
      "name": "개끌린다면",
      "address": "경기도 평택시 비전동 738-14",
      "latitude": 36.9936762,
      "longitude": 127.0963905
    },
    {
      "no": 802,
      "name": "개끌림",
      "address": "광주광역시 북구 일곡동 849-2",
      "latitude": 35.2070611,
      "longitude": 126.8966816
    },
    {
      "no": 803,
      "name": "개끗하개",
      "address": "서울특별시 중랑구 면목동 177-209",
      "latitude": 37.587156,
      "longitude": 127.0766622
    },
    {
      "no": 804,
      "name": "개나리봄약국",
      "address": "서울특별시 강남구 역삼동 755",
      "latitude": 37.499217,
      "longitude": 127.0484398
    },
    {
      "no": 805,
      "name": "개나리약국",
      "address": "부산광역시 사하구 괴정동 1010-11",
      "latitude": 35.1001808,
      "longitude": 128.9940227
    },
    {
      "no": 806,
      "name": "개나리펫살롱",
      "address": "전라북도 전주시 덕진구 송천동1가 403-8",
      "latitude": 35.8568688,
      "longitude": 127.1191475
    },
    {
      "no": 807,
      "name": "개날라리",
      "address": "인천광역시 연수구 연수동 631-2",
      "latitude": 37.4117003,
      "longitude": 126.678113
    },
    {
      "no": 808,
      "name": "개날라리 가정점",
      "address": "인천광역시 서구 가정동 494-1",
      "latitude": 37.520398,
      "longitude": 126.6733553
    },
    {
      "no": 809,
      "name": "개냥아치",
      "address": "인천광역시 계양구 임학동 3-5",
      "latitude": 37.5477269,
      "longitude": 126.7336476
    },
    {
      "no": 810,
      "name": "개냥이",
      "address": "경상북도 경주시 성동동 146-8",
      "latitude": 35.8492004,
      "longitude": 129.2173092
    },
    {
      "no": 811,
      "name": "개냥이아울렛 관평점",
      "address": "대전광역시 유성구 관평동 1349",
      "latitude": 36.4308802,
      "longitude": 127.3896357
    },
    {
      "no": 812,
      "name": "개냥이아울렛 구암점",
      "address": "대전광역시 유성구 구암동 615-17",
      "latitude": 36.3488542,
      "longitude": 127.3333203
    },
    {
      "no": 813,
      "name": "개냥조아",
      "address": "경상남도 거제시 고현동 307-5",
      "latitude": 34.8836266,
      "longitude": 128.6291015
    },
    {
      "no": 814,
      "name": "개네집",
      "address": "충청북도 청주시 청원구 내수읍 마산리 123",
      "latitude": 36.7217298,
      "longitude": 127.5355633
    },
    {
      "no": 815,
      "name": "개님살롱 레이크사이드",
      "address": "서울특별시 송파구 석촌동 24-14",
      "latitude": 37.506341,
      "longitude": 127.0993964
    },
    {
      "no": 816,
      "name": "개님의상점",
      "address": "경기도 광명시 일직동 514",
      "latitude": 37.4212396,
      "longitude": 126.886224
    },
    {
      "no": 817,
      "name": "개다방",
      "address": "제주특별자치도 서귀포시 동홍동 1554-4",
      "latitude": 33.2593724,
      "longitude": 126.5597957
    },
    {
      "no": 818,
      "name": "개달당",
      "address": "경기도 고양시 일산서구 일산동 600-32",
      "latitude": 37.6885437,
      "longitude": 126.7701832
    },
    {
      "no": 819,
      "name": "개도널사랑한대",
      "address": "전라북도 전주시 덕진구 송천동2가 1327-14",
      "latitude": 35.872818,
      "longitude": 127.1263456
    },
    {
      "no": 820,
      "name": "개도널사랑해",
      "address": "경상남도 창원시 마산회원구 내서읍 삼계리 10-5",
      "latitude": 35.2343918,
      "longitude": 128.5014363
    },
    {
      "no": 821,
      "name": "개들랜드",
      "address": "울산광역시 울주군 서생면 용리 32-2",
      "latitude": 35.3629179,
      "longitude": 129.3240158
    },
    {
      "no": 822,
      "name": "개들만찬",
      "address": "경상남도 김해시 장유동 839-2",
      "latitude": 35.1714816,
      "longitude": 128.8227925
    },
    {
      "no": 823,
      "name": "개들의수다",
      "address": "경기도 김포시 고촌읍 신곡리 394-1",
      "latitude": 37.6045716,
      "longitude": 126.776557
    },
    {
      "no": 824,
      "name": "개들의정원",
      "address": "경기도 이천시 설성면 상봉리 511-1",
      "latitude": 37.15819,
      "longitude": 127.504349
    },
    {
      "no": 825,
      "name": "개들의집",
      "address": "경기도 시흥시 은행동 608-6",
      "latitude": 37.445353,
      "longitude": 126.8041749
    },
    {
      "no": 826,
      "name": "개땡큐",
      "address": "경상남도 김해시 주촌면 천곡리 1540-1",
      "latitude": 35.2335621,
      "longitude": 128.8381999
    },
    {
      "no": 827,
      "name": "개떼놀이터",
      "address": "경기도 남양주시 진건읍 사능리 224-22",
      "latitude": 37.6499850999999,
      "longitude": 127.1904796
    },
    {
      "no": 828,
      "name": "개떼놀이터 용인",
      "address": "경기도 용인시 기흥구 마북동 494-1",
      "latitude": 37.2984231999999,
      "longitude": 127.1066077
    },
    {
      "no": 829,
      "name": "개떼놀이터 인천점",
      "address": "인천광역시 계양구 목상동 167",
      "latitude": 37.5703179,
      "longitude": 126.7087962
    },
    {
      "no": 830,
      "name": "개라다이스",
      "address": "서울특별시 관악구 봉천동 968-35",
      "latitude": 37.4876815999999,
      "longitude": 126.9326428
    },
    {
      "no": 831,
      "name": "개라상",
      "address": "서울특별시 관악구 신림동 1463-65",
      "latitude": 37.4850042,
      "longitude": 126.9255521
    },
    {
      "no": 832,
      "name": "개러리아 강남점",
      "address": "서울특별시 강남구 삼성동 9-16",
      "latitude": 37.5144622,
      "longitude": 127.0429014
    },
    {
      "no": 833,
      "name": "개롱약국",
      "address": "서울특별시 송파구 가락동 166-2",
      "latitude": 37.4979733,
      "longitude": 127.1342583
    },
    {
      "no": 834,
      "name": "개르메스",
      "address": "인천광역시 서구 청라동 156-1",
      "latitude": 37.5350599,
      "longitude": 126.6470175
    },
    {
      "no": 835,
      "name": "개를품은남자",
      "address": "경상남도 창원시 마산합포구 신포동2가 54",
      "latitude": 35.2012884,
      "longitude": 128.5708344
    },
    {
      "no": 836,
      "name": "개리비안베이",
      "address": "충청남도 태안군 소원면 법산리 72",
      "latitude": 36.7552168,
      "longitude": 126.2120608
    },
    {
      "no": 837,
      "name": "개린이네",
      "address": "경기도 용인시 기흥구 공세동 60-1",
      "latitude": 37.2316922,
      "longitude": 127.1162596
    },
    {
      "no": 838,
      "name": "개린이세상",
      "address": "울산광역시 남구 삼산동 227-1",
      "latitude": 35.5408622,
      "longitude": 129.3446664
    },
    {
      "no": 839,
      "name": "개린이수제베이커리",
      "address": "경기도 김포시 사우동 1224",
      "latitude": 37.6192445,
      "longitude": 126.7106457
    },
    {
      "no": 840,
      "name": "개린이집",
      "address": "인천광역시 남동구 만수동 979-5",
      "latitude": 37.4496684,
      "longitude": 126.7304348
    },
    {
      "no": 841,
      "name": "개린이집합소",
      "address": "인천광역시 부평구 산곡동 411-5",
      "latitude": 37.5039939,
      "longitude": 126.7116475
    },
    {
      "no": 842,
      "name": "개릴라독",
      "address": "인천광역시 서구 가좌동 236-15",
      "latitude": 37.4887989,
      "longitude": 126.682283
    },
    {
      "no": 843,
      "name": "개릿뷰티 애견 미용호텔",
      "address": "울산광역시 남구 신정동 488-32",
      "latitude": 35.546111,
      "longitude": 129.3128031
    },
    {
      "no": 844,
      "name": "개명동물병원",
      "address": "서울특별시 구로구 개봉동 403-138",
      "latitude": 37.4901855,
      "longitude": 126.8563021
    },
    {
      "no": 845,
      "name": "개모임",
      "address": "경기도 의정부시 신곡동 167-1",
      "latitude": 37.738458,
      "longitude": 127.0720746
    },
    {
      "no": 846,
      "name": "개모임",
      "address": "전라북도 군산시 나운동 522-2",
      "latitude": 35.9689207,
      "longitude": 126.7043381
    },
    {
      "no": 847,
      "name": "개묘한스토리",
      "address": "강원도 춘천시 교동 159-9",
      "latitude": 37.8815647,
      "longitude": 127.7396152
    },
    {
      "no": 848,
      "name": "개뭉치반려견세터",
      "address": "전라남도 여수시 충무동 347-1",
      "latitude": 34.7429276,
      "longitude": 127.730424
    },
    {
      "no": 849,
      "name": "개미남",
      "address": "경기도 의정부시 낙양동 706-6",
      "latitude": 37.7496378,
      "longitude": 127.0977853
    },
    {
      "no": 850,
      "name": "개미남개미녀",
      "address": "인천광역시 서구 신현동 282-15",
      "latitude": 37.5174685,
      "longitude": 126.6716488
    },
    {
      "no": 851,
      "name": "개미애견미용실",
      "address": "경상남도 진주시 가좌동 1958",
      "latitude": 35.1543917,
      "longitude": 128.1166482
    },
    {
      "no": 852,
      "name": "개미용실",
      "address": "강원도 원주시 단구동 131-23",
      "latitude": 37.3246915,
      "longitude": 127.9615163
    },
    {
      "no": 853,
      "name": "개미용중",
      "address": "광주광역시 북구 두암동 599-6",
      "latitude": 35.1766445,
      "longitude": 126.9340145
    },
    {
      "no": 854,
      "name": "개발소",
      "address": "인천광역시 서구 불로동 308",
      "latitude": 37.6176461,
      "longitude": 126.6924032
    },
    {
      "no": 855,
      "name": "개밥",
      "address": "서울특별시 용산구 용산동2가 1-50",
      "latitude": 37.5451624,
      "longitude": 126.9851849
    },
    {
      "no": 856,
      "name": "개밥",
      "address": "전라북도 전주시 완산구 효자동3가 1468-6",
      "latitude": 35.8327495,
      "longitude": 127.1023337
    },
    {
      "no": 857,
      "name": "개밥도둑 구래점",
      "address": "경기도 김포시 양촌읍 구래리 823-5",
      "latitude": 37.6363083,
      "longitude": 126.6223852
    },
    {
      "no": 858,
      "name": "개밥바라기",
      "address": "충청북도 충주시 안림동 571-3",
      "latitude": 36.9731909,
      "longitude": 127.9542214
    },
    {
      "no": 859,
      "name": "개밥살롱",
      "address": "전라남도 순천시 가곡동 974-5",
      "latitude": 34.9794539,
      "longitude": 127.4823128
    },
    {
      "no": 860,
      "name": "개밥안주냥",
      "address": "경상남도 거제시 연초면 연사리 1344-3",
      "latitude": 34.9011821,
      "longitude": 128.6454809
    },
    {
      "no": 861,
      "name": "개밥의정석",
      "address": "경기도 평택시 청북읍 옥길리 1159-2",
      "latitude": 37.018288,
      "longitude": 126.9164744
    },
    {
      "no": 862,
      "name": "개밥장수타코네",
      "address": "서울특별시 강서구 마곡동 768-2",
      "latitude": 37.5626868,
      "longitude": 126.8236078
    },
    {
      "no": 863,
      "name": "개밥주는고양이",
      "address": "경상북도 포항시 남구 해도동 488-6",
      "latitude": 36.0241091,
      "longitude": 129.36984
    },
    {
      "no": 864,
      "name": "개밥주는고양이 신길점",
      "address": "서울특별시 영등포구 신길동 379-5",
      "latitude": 37.5030601,
      "longitude": 126.9010431
    },
    {
      "no": 865,
      "name": "개밥집",
      "address": "부산광역시 해운대구 반송동 257-397",
      "latitude": 35.224968,
      "longitude": 129.1492892
    },
    {
      "no": 866,
      "name": "개밥파는고양이",
      "address": "대전광역시 서구 탄방동 1034",
      "latitude": 36.3472882,
      "longitude": 127.3954835
    },
    {
      "no": 867,
      "name": "개밥파는고양이 갈마점",
      "address": "대전광역시 서구 갈마동 363-6",
      "latitude": 36.3478144,
      "longitude": 127.3690576
    },
    {
      "no": 868,
      "name": "개밥파는고양이 계룡점",
      "address": "충청남도 계룡시 엄사면 엄사리 190-2",
      "latitude": 36.2892109,
      "longitude": 127.2397826
    },
    {
      "no": 869,
      "name": "개밥파는고양이 괴정점",
      "address": "대전광역시 서구 괴정동 53-6",
      "latitude": 36.3384939,
      "longitude": 127.3854904
    },
    {
      "no": 870,
      "name": "개밥파는고양이 구래점",
      "address": "경기도 김포시 구래동 6871-29",
      "latitude": 37.645018,
      "longitude": 126.6193624
    },
    {
      "no": 871,
      "name": "개밥파는고양이 까치산역점",
      "address": "서울특별시 강서구 화곡동 340-32",
      "latitude": 37.5331009999999,
      "longitude": 126.8476194
    },
    {
      "no": 872,
      "name": "개밥파는고양이 마곡점",
      "address": "서울특별시 강서구 마곡동 744",
      "latitude": 37.5706297,
      "longitude": 126.8298909
    },
    {
      "no": 873,
      "name": "개밥파는고양이 망원점",
      "address": "서울특별시 마포구 망원동 426-7",
      "latitude": 37.5589705999999,
      "longitude": 126.9032332
    },
    {
      "no": 874,
      "name": "개밥파는고양이 송촌점",
      "address": "대전광역시 대덕구 송촌동 476-1",
      "latitude": 36.3646357,
      "longitude": 127.4398923
    },
    {
      "no": 875,
      "name": "개밥파는고양이 신성점",
      "address": "대전광역시 유성구 신성동 210-97",
      "latitude": 36.3875148,
      "longitude": 127.3503419
    },
    {
      "no": 876,
      "name": "개밥파는고양이 아름점",
      "address": "세종특별자치시 아름동 1291",
      "latitude": 36.5122553,
      "longitude": 127.2498473
    },
    {
      "no": 877,
      "name": "개밥파는고양이 용두점",
      "address": "대전광역시 중구 용두동 39",
      "latitude": 36.3252054,
      "longitude": 127.4135933
    },
    {
      "no": 878,
      "name": "개밥파는고양이 원내점",
      "address": "대전광역시 유성구 원내동 227-10",
      "latitude": 36.2999406,
      "longitude": 127.3182659
    },
    {
      "no": 879,
      "name": "개밥파는고양이 유천점",
      "address": "대전광역시 중구 유천동 197-4",
      "latitude": 36.3221778,
      "longitude": 127.3970988
    },
    {
      "no": 880,
      "name": "개밥파는고양이 은평신사점",
      "address": "서울특별시 은평구 신사동 18-1",
      "latitude": 37.5992082,
      "longitude": 126.909407
    },
    {
      "no": 881,
      "name": "개밥파는고양이 일산백석점",
      "address": "경기도 고양시 일산동구 백석동 1319",
      "latitude": 37.6393596,
      "longitude": 126.7882232
    },
    {
      "no": 882,
      "name": "개밥파는고양이 전민점",
      "address": "대전광역시 유성구 전민동 385-6",
      "latitude": 36.3972,
      "longitude": 127.4045781
    },
    {
      "no": 883,
      "name": "개밥파는고양이 충주점",
      "address": "충청북도 충주시 칠금동 611",
      "latitude": 36.9865693,
      "longitude": 127.9207905
    },
    {
      "no": 884,
      "name": "개밥파는고양이 하남미사점",
      "address": "경기도 하남시 망월동 1102",
      "latitude": 37.562037,
      "longitude": 127.1902698
    },
    {
      "no": 885,
      "name": "개밥파는남자",
      "address": "경기도 양주시 유양동 493",
      "latitude": 37.7845957,
      "longitude": 127.0291178
    },
    {
      "no": 886,
      "name": "개밥포차",
      "address": "경기도 양주시 은현면 선암리 436-8",
      "latitude": 37.8796791,
      "longitude": 127.0330348
    },
    {
      "no": 887,
      "name": "개밥하우스",
      "address": "경기도 고양시 일산동구 식사동 513-3",
      "latitude": 37.6654645,
      "longitude": 126.815855
    },
    {
      "no": 888,
      "name": "개밥하우스",
      "address": "충청남도 서천군 서천읍 사곡리 251-6",
      "latitude": 36.0861804,
      "longitude": 126.6850617
    },
    {
      "no": 889,
      "name": "개밥하우스",
      "address": "대전광역시 유성구 관평동 878",
      "latitude": 36.4263109,
      "longitude": 127.3880888
    },
    {
      "no": 890,
      "name": "개밥하우스 가좌시장점",
      "address": "인천광역시 서구 가좌동 30-67",
      "latitude": 37.493618,
      "longitude": 126.6847061
    },
    {
      "no": 891,
      "name": "개밥하우스 공항점",
      "address": "서울특별시 강서구 공항동 25-1",
      "latitude": 37.5614519,
      "longitude": 126.813019
    },
    {
      "no": 892,
      "name": "개밥하우스 목동5호점",
      "address": "서울특별시 양천구 목동 721-1",
      "latitude": 37.5401617,
      "longitude": 126.8640711
    },
    {
      "no": 893,
      "name": "개밥하우스 신월점",
      "address": "서울특별시 양천구 신월동 44-25",
      "latitude": 37.5377139,
      "longitude": 126.8267274
    },
    {
      "no": 894,
      "name": "개벤져스",
      "address": "경기도 남양주시 평내동 583-6",
      "latitude": 37.6476974,
      "longitude": 127.2361748
    },
    {
      "no": 895,
      "name": "개봉동물병원",
      "address": "서울특별시 구로구 고척동 265-4",
      "latitude": 37.5034486,
      "longitude": 126.8511215
    },
    {
      "no": 896,
      "name": "개빕주는여자",
      "address": "광주광역시 광산구 수완동 363-4",
      "latitude": 35.2035874,
      "longitude": 126.8271387
    },
    {
      "no": 897,
      "name": "개빵공방",
      "address": "부산광역시 사하구 괴정동 91-2",
      "latitude": 35.1068355,
      "longitude": 129.0080528
    },
    {
      "no": 898,
      "name": "개빵집",
      "address": "서울특별시 영등포구 당산동1가 267",
      "latitude": 37.5236531,
      "longitude": 126.8981937
    },
    {
      "no": 899,
      "name": "개사랑해",
      "address": "부산광역시 부산진구 개금동 540-143",
      "latitude": 35.1482325,
      "longitude": 129.0217436
    },
    {
      "no": 900,
      "name": "개상전 애견카페",
      "address": "서울특별시 은평구 대조동 14-27",
      "latitude": 37.6102059,
      "longitude": 126.9292166
    },
    {
      "no": 901,
      "name": "개성있개",
      "address": "경상남도 김해시 내동 1096-6",
      "latitude": 35.2390032,
      "longitude": 128.8620873
    },
    {
      "no": 902,
      "name": "개성있냥",
      "address": "서울특별시 송파구 가락동 196-4",
      "latitude": 37.4931702,
      "longitude": 127.1314997
    },
    {
      "no": 903,
      "name": "개수작",
      "address": "전라북도 군산시 미룡동 59-179",
      "latitude": 35.9436908,
      "longitude": 126.6920227
    },
    {
      "no": 904,
      "name": "개순이상점",
      "address": "경기도 하남시 신장동 430-65",
      "latitude": 37.5386494,
      "longitude": 127.2086732
    },
    {
      "no": 905,
      "name": "개스코트",
      "address": "경상남도 김해시 외동 1186-13",
      "latitude": 35.2339659,
      "longitude": 128.8604346
    },
    {
      "no": 906,
      "name": "개스타하우스",
      "address": "경기도 고양시 일산동구 성석동 590-1",
      "latitude": 37.7003849,
      "longitude": 126.7999534
    },
    {
      "no": 907,
      "name": "개스트 애견카페",
      "address": "전라남도 화순군 한천면 금전리 302",
      "latitude": 34.972246,
      "longitude": 126.986475
    },
    {
      "no": 908,
      "name": "개스트살롱",
      "address": "경기도 안양시 동안구 호계동 984-15",
      "latitude": 37.3751774,
      "longitude": 126.9581196
    },
    {
      "no": 909,
      "name": "개스트푸드",
      "address": "경상남도 창원시 진해구 용원동 1336-4",
      "latitude": 35.0893815,
      "longitude": 128.8032274
    },
    {
      "no": 910,
      "name": "개스트하우스",
      "address": "경기도 안산시 상록구 본오동 1118-10",
      "latitude": 37.3008937,
      "longitude": 126.8727
    },
    {
      "no": 911,
      "name": "개스트하우스",
      "address": "충청북도 음성군 감곡면 왕장리 525-7",
      "latitude": 37.1183351,
      "longitude": 127.6398459
    },
    {
      "no": 912,
      "name": "개스트하우스",
      "address": "충청북도 청주시 청원구 사천동 680",
      "latitude": 36.6602562,
      "longitude": 127.4737539
    },
    {
      "no": 913,
      "name": "개스트하우스",
      "address": "충청남도 당진시 읍내동 1548",
      "latitude": 36.9010543,
      "longitude": 126.6319971
    },
    {
      "no": 914,
      "name": "개식구",
      "address": "충청남도 당진시 읍내동 1258",
      "latitude": 36.889271,
      "longitude": 126.6368479
    },
    {
      "no": 915,
      "name": "개심사",
      "address": "충청남도 서산시 운산면 신창리 1",
      "latitude": 36.746711,
      "longitude": 126.5903392
    },
    {
      "no": 916,
      "name": "개아저씨",
      "address": "경기도 파주시 목동동 778-1",
      "latitude": 37.7299313,
      "longitude": 126.7472522
    },
    {
      "no": 917,
      "name": "개안네",
      "address": "부산광역시 동래구 사직동 144-5",
      "latitude": 35.2023532,
      "longitude": 129.0773915
    },
    {
      "no": 918,
      "name": "개엄마",
      "address": "서울특별시 관악구 신림동 550-1",
      "latitude": 37.4855239,
      "longitude": 126.9106097
    },
    {
      "no": 919,
      "name": "개엄마들의잡화점",
      "address": "대구광역시 수성구 두산동 70-9",
      "latitude": 35.8358248,
      "longitude": 128.6187593
    },
    {
      "no": 920,
      "name": "개예쁨",
      "address": "경기도 파주시 목동동 1065-2",
      "latitude": 37.7223309,
      "longitude": 126.739227
    },
    {
      "no": 921,
      "name": "개옹 구미점",
      "address": "경상북도 구미시 원평동 153-16",
      "latitude": 36.1297887,
      "longitude": 128.3337895
    },
    {
      "no": 922,
      "name": "개와고양이의생각",
      "address": "서울특별시 노원구 공릉동 382-15",
      "latitude": 37.6250827,
      "longitude": 127.0711871
    },
    {
      "no": 923,
      "name": "개와냥이동물병원",
      "address": "서울특별시 은평구 대조동 14-27",
      "latitude": 37.6102059,
      "longitude": 126.9292166
    },
    {
      "no": 924,
      "name": "개와집",
      "address": "경상북도 경주시 황성동 300-14",
      "latitude": 35.8621393,
      "longitude": 129.2171868
    },
    {
      "no": 925,
      "name": "개운하개",
      "address": "대구광역시 북구 국우동 1086-12",
      "latitude": 35.9455018,
      "longitude": 128.571642
    },
    {
      "no": 926,
      "name": "개운하개",
      "address": "광주광역시 남구 주월동 492-7",
      "latitude": 35.1323801,
      "longitude": 126.8935967
    },
    {
      "no": 927,
      "name": "개운한날",
      "address": "부산광역시 동구 수정동 545-3",
      "latitude": 35.1306493,
      "longitude": 129.0463475
    },
    {
      "no": 928,
      "name": "개울가 오토 캠핑장",
      "address": "경기도 가평군 설악면 가일리 185-3",
      "latitude": 37.6029234,
      "longitude": 127.4949496
    },
    {
      "no": 929,
      "name": "개웃는날",
      "address": "대전광역시 유성구 원내동 309-8",
      "latitude": 36.2991492,
      "longitude": 127.3192292
    },
    {
      "no": 930,
      "name": "개이득",
      "address": "경상남도 진주시 인사동 153-24",
      "latitude": 35.1897283,
      "longitude": 128.0741001
    },
    {
      "no": 931,
      "name": "개이득 애견카페",
      "address": "경상북도 구미시 봉곡동 294-8",
      "latitude": 36.1509618,
      "longitude": 128.3155986
    },
    {
      "no": 932,
      "name": "개이득 화성점",
      "address": "경기도 화성시 향남읍 행정리 495-4",
      "latitude": 37.1257317,
      "longitude": 126.9213575
    },
    {
      "no": 933,
      "name": "개이발소",
      "address": "경기도 포천시 소흘읍 송우리 725-7",
      "latitude": 37.8340839,
      "longitude": 127.1495037
    },
    {
      "no": 934,
      "name": "개이버",
      "address": "서울특별시 영등포구 문래동3가 76-1",
      "latitude": 37.5163763,
      "longitude": 126.8927562
    },
    {
      "no": 935,
      "name": "개이뻐",
      "address": "경기도 포천시 신읍동 197-5",
      "latitude": 37.8986799,
      "longitude": 127.204763
    },
    {
      "no": 936,
      "name": "개이뿌개",
      "address": "인천광역시 미추홀구 문학동 155-34",
      "latitude": 37.4374164,
      "longitude": 126.6795782
    },
    {
      "no": 937,
      "name": "개이쁜날",
      "address": "경기도 안성시 일죽면 송천리 256-18",
      "latitude": 37.0900054,
      "longitude": 127.4773214
    },
    {
      "no": 938,
      "name": "개이쁜냥이",
      "address": "대구광역시 달서구 상인동 1566-3",
      "latitude": 35.8113609,
      "longitude": 128.5491096
    },
    {
      "no": 939,
      "name": "개이쁨",
      "address": "경기도 화성시 반송동 147-7",
      "latitude": 37.1935416,
      "longitude": 127.0665858
    },
    {
      "no": 940,
      "name": "개이쁨샵",
      "address": "경상남도 창원시 진해구 남문동 1255-1",
      "latitude": 35.1052971,
      "longitude": 128.751468
    },
    {
      "no": 941,
      "name": "개이커리",
      "address": "경기도 안산시 단원구 와동 685-8",
      "latitude": 37.3309098,
      "longitude": 126.8272376
    },
    {
      "no": 942,
      "name": "개이크",
      "address": "경기도 김포시 운양동 1307-4",
      "latitude": 37.6531606,
      "longitude": 126.6858647
    },
    {
      "no": 943,
      "name": "개인공간",
      "address": "충청남도 공주시 반포면 상신리 594-5",
      "latitude": 36.3902568,
      "longitude": 127.2174435
    },
    {
      "no": 944,
      "name": "개인공간",
      "address": "경상북도 경주시 천북면 신당리 1115-9",
      "latitude": 35.8939024,
      "longitude": 129.2404965
    },
    {
      "no": 945,
      "name": "개인공간",
      "address": "제주특별자치도 제주시 도련이동 542-1",
      "latitude": 33.5159037,
      "longitude": 126.5890436
    },
    {
      "no": 946,
      "name": "개인의공간쉼",
      "address": "인천광역시 서구 석남동 477-8",
      "latitude": 37.5100569,
      "longitude": 126.6712996
    },
    {
      "no": 947,
      "name": "개인취향",
      "address": "서울특별시 광진구 중곡동 150-228",
      "latitude": 37.5598591,
      "longitude": 127.0851336
    },
    {
      "no": 948,
      "name": "개자리펫할인마트",
      "address": "경기도 양주시 덕정동 172",
      "latitude": 37.8417014,
      "longitude": 127.0664567
    },
    {
      "no": 949,
      "name": "개점빵",
      "address": "울산광역시 동구 방어동 94-12",
      "latitude": 35.4867921,
      "longitude": 129.4306452
    },
    {
      "no": 950,
      "name": "개정촌",
      "address": "경기도 시흥시 정왕동 1737-13",
      "latitude": 37.3449836,
      "longitude": 126.7370753
    },
    {
      "no": 951,
      "name": "개조아샵",
      "address": "충청남도 당진시 읍내동 557-24",
      "latitude": 36.8922778,
      "longitude": 126.627151
    },
    {
      "no": 952,
      "name": "개좋다냥",
      "address": "전라남도 순천시 조례동 1817-1",
      "latitude": 34.9566581,
      "longitude": 127.5355032
    },
    {
      "no": 953,
      "name": "개좋은세상",
      "address": "경기도 고양시 일산동구 장항동 742-1",
      "latitude": 37.6619953,
      "longitude": 126.7660993
    },
    {
      "no": 954,
      "name": "개중목욕탕",
      "address": "강원도 춘천시 석사동 733-16",
      "latitude": 37.8653095,
      "longitude": 127.7538069
    },
    {
      "no": 955,
      "name": "개짱",
      "address": "충청북도 청주시 흥덕구 가경동 1647",
      "latitude": 36.6171323,
      "longitude": 127.4425152
    },
    {
      "no": 956,
      "name": "개차반",
      "address": "전라남도 목포시 용당동 1197-3",
      "latitude": 34.8106458,
      "longitude": 126.3949331
    },
    {
      "no": 957,
      "name": "개코네 길동점",
      "address": "서울특별시 강동구 길동 333-6",
      "latitude": 37.542809,
      "longitude": 127.144493
    },
    {
      "no": 958,
      "name": "개키우는언니",
      "address": "부산광역시 해운대구 중동 1763",
      "latitude": 35.1653397,
      "longitude": 129.1715804
    },
    {
      "no": 959,
      "name": "개털깍는강산이네",
      "address": "경상남도 김해시 동상동 1099",
      "latitude": 35.2422119999999,
      "longitude": 128.8844789
    },
    {
      "no": 960,
      "name": "개털깎는남자",
      "address": "경기도 안양시 동안구 호계동 894-3",
      "latitude": 37.3915565,
      "longitude": 126.9443021
    },
    {
      "no": 961,
      "name": "개털깎는언니쓰",
      "address": "울산광역시 동구 방어동 1091-1",
      "latitude": 35.4847779,
      "longitude": 129.4175763
    },
    {
      "no": 962,
      "name": "개토피아",
      "address": "경기도 고양시 덕양구 화정동 981-1",
      "latitude": 37.6373655,
      "longitude": 126.8346762
    },
    {
      "no": 963,
      "name": "개판양이판",
      "address": "인천광역시 미추홀구 주안동 1571",
      "latitude": 37.4484864,
      "longitude": 126.6908512
    },
    {
      "no": 964,
      "name": "개판오분전",
      "address": "경기도 여주시 천송동 304-4",
      "latitude": 37.3013974,
      "longitude": 127.6559378
    },
    {
      "no": 965,
      "name": "개판오븐점",
      "address": "강원도 강릉시 교동 1907-7",
      "latitude": 37.7612641,
      "longitude": 128.8731027
    },
    {
      "no": 966,
      "name": "개판카페",
      "address": "서울특별시 관악구 봉천동 1701",
      "latitude": 37.4770632,
      "longitude": 126.9518897
    },
    {
      "no": 967,
      "name": "개팔자상팔자",
      "address": "경기도 군포시 금정동 855-2",
      "latitude": 37.3600415,
      "longitude": 126.9421825
    },
    {
      "no": 968,
      "name": "개팔자상팔자",
      "address": "울산광역시 남구 야음동 384-40",
      "latitude": 35.5218777,
      "longitude": 129.3348583
    },
    {
      "no": 969,
      "name": "개팔자상팔자펜션",
      "address": "강원도 홍천군 서면 굴업리 125",
      "latitude": 37.6101025,
      "longitude": 127.6841169
    },
    {
      "no": 970,
      "name": "개편한세상",
      "address": "서울특별시 도봉구 쌍문동 512-23",
      "latitude": 37.6590749,
      "longitude": 127.0141636
    },
    {
      "no": 971,
      "name": "개편한세상",
      "address": "경기도 파주시 동패동 1908",
      "latitude": 37.71065,
      "longitude": 126.7382474
    },
    {
      "no": 972,
      "name": "개편한세상",
      "address": "경기도 의정부시 민락동 550-4",
      "latitude": 37.7385204,
      "longitude": 127.0924107
    },
    {
      "no": 973,
      "name": "개편한세상",
      "address": "인천광역시 남동구 간석동 209-5",
      "latitude": 37.4630963,
      "longitude": 126.7088227
    },
    {
      "no": 974,
      "name": "개편한세상",
      "address": "충청북도 충주시 중앙탑면 탑평리 137",
      "latitude": 37.0218454,
      "longitude": 127.8643895
    },
    {
      "no": 975,
      "name": "개편한세상",
      "address": "충청남도 예산군 예산읍 산성리 718",
      "latitude": 36.6931637,
      "longitude": 126.8333283
    },
    {
      "no": 976,
      "name": "개포 한 동물병원",
      "address": "서울특별시 강남구 개포동 1187-1",
      "latitude": 37.4742316,
      "longitude": 127.0498203
    },
    {
      "no": 977,
      "name": "개포동물병원",
      "address": "서울특별시 강남구 개포동 186-17",
      "latitude": 37.4892714,
      "longitude": 127.0688177
    },
    {
      "no": 978,
      "name": "개포동물병원",
      "address": "경기도 양평군 양서면 양수리 565-11",
      "latitude": 37.5453111,
      "longitude": 127.3177154
    },
    {
      "no": 979,
      "name": "개포별빛동물병원",
      "address": "서울특별시 강남구 개포동 1229-11",
      "latitude": 37.4764431,
      "longitude": 127.0463188
    },
    {
      "no": 980,
      "name": "개포이화약국",
      "address": "서울특별시 강남구 일원동 743",
      "latitude": 37.4909336,
      "longitude": 127.0751203
    },
    {
      "no": 981,
      "name": "개폼",
      "address": "인천광역시 남동구 서창동 565-10",
      "latitude": 37.4345813,
      "longitude": 126.7512263
    },
    {
      "no": 982,
      "name": "개풍약국",
      "address": "경상북도 포항시 북구 죽도동 597-12",
      "latitude": 36.0348244,
      "longitude": 129.365687
    },
    {
      "no": 983,
      "name": "개프탑라운지",
      "address": "충청북도 청주시 흥덕구 송절동 694",
      "latitude": 36.6661599,
      "longitude": 127.4504963
    },
    {
      "no": 984,
      "name": "개화예술공원",
      "address": "충청남도 보령시 성주면 개화리 177-2",
      "latitude": 36.3133466,
      "longitude": 126.6585547
    },
    {
      "no": 985,
      "name": "갤러리약국",
      "address": "서울특별시 강남구 논현동 158",
      "latitude": 37.5101331,
      "longitude": 127.0272543
    },
    {
      "no": 986,
      "name": "갤러리약국",
      "address": "대구광역시 중구 남산동 696-2",
      "latitude": 35.8608632,
      "longitude": 128.5922232
    },
    {
      "no": 987,
      "name": "갤러리펫",
      "address": "인천광역시 서구 왕길동 214-3",
      "latitude": 37.5936768,
      "longitude": 126.659128
    },
    {
      "no": 988,
      "name": "갤럭시펫",
      "address": "경기도 화성시 청계동 536",
      "latitude": 37.1991739,
      "longitude": 127.1142784
    },
    {
      "no": 989,
      "name": "갯골생태공원",
      "address": "경기도 시흥시 장곡동 724-32",
      "latitude": 37.3909838999999,
      "longitude": 126.780835
    },
    {
      "no": 990,
      "name": "갱스터도그 용인점",
      "address": "경기도 용인시 수지구 상현동 1157-1",
      "latitude": 37.2978761,
      "longitude": 127.0801569
    },
    {
      "no": 991,
      "name": "개in공간",
      "address": "경상남도 거제시 고현동 858-16",
      "latitude": 34.8868254,
      "longitude": 128.6179768
    },
    {
      "no": 992,
      "name": "개in샵",
      "address": "경기도 평택시 비전동 985-9",
      "latitude": 37.0050448,
      "longitude": 127.1012105
    },
    {
      "no": 993,
      "name": "개s라인",
      "address": "전라남도 영암군 삼호읍 용앙리 1675-1",
      "latitude": 34.7549682,
      "longitude": 126.4614089
    },
    {
      "no": 994,
      "name": "거부기 동물병원",
      "address": "경기도 고양시 일산동구 장항동 742-1",
      "latitude": 37.6619953,
      "longitude": 126.7660993
    },
    {
      "no": 995,
      "name": "거북당약국",
      "address": "경기도 김포시 장기동 2018-2",
      "latitude": 37.6420583,
      "longitude": 126.6785669
    },
    {
      "no": 996,
      "name": "거북선공원",
      "address": "전라남도 여수시 학동 162",
      "latitude": 34.7613246,
      "longitude": 127.6667464
    },
    {
      "no": 997,
      "name": "거북시장약국",
      "address": "인천광역시 서구 석남동 540-28",
      "latitude": 37.5033325,
      "longitude": 126.6726913
    },
    {
      "no": 998,
      "name": "거북이 약국",
      "address": "대구광역시 달성군 현풍읍 중리 505",
      "latitude": 35.6895941,
      "longitude": 128.4521988
    },
    {
      "no": 999,
      "name": "거북이약국",
      "address": "경상북도 포항시 북구 죽도동 48-20",
      "latitude": 36.0320723,
      "longitude": 129.3657782
    },
    {
      "no": 1000,
      "name": "거산동물병원",
      "address": "충청남도 당진시 신평면 거산리 161-4",
      "latitude": 36.8785772,
      "longitude": 126.7527595
    },
    {
      "no": 1001,
      "name": "거성푸드",
      "address": "충청북도 충주시 달천동 835-28",
      "latitude": 36.9573004,
      "longitude": 127.8935481
    }
  ]
}